{"type":"FeatureCollection","name":"civil-supplies godowns","crs":{"type":"name","properties":{"name":"urn:ogc:def:crs:OGC:1.3:CRS84"}},"features":[{"type":"Feature","geometry":{"type":"Point","coordinates":[73.824605,15.497094]},"properties":{"Name":"North Goa Civil Supplies Godown - Tiswadi","Mobile":0,"Address":"Junta House, Panaji","Capacity":"550 MTs"}},{"type":"Feature","geometry":{"type":"Point","coordinates":[73.791728,15.689187]},"properties":{"Name":"North Goa Civil Supplies Godown - Pernem","Mobile":0,"Address":"Tuem, Pernem","Capacity":"550 MTs"}},{"type":"Feature","geometry":{"type":"Point","coordinates":[74.054574,15.545971]},"properties":{"Name":"North Goa Civil Supplies Godown - Sattari","Mobile":0,"Address":"Near Police Out Post, Honda, Valpoi","Capacity":"550 MTs"}},{"type":"Feature","geometry":{"type":"Point","coordinates":[74.001234,15.569686]},"properties":{"Name":"North Goa Civil Supplies Godown - Bicholim","Mobile":0,"Address":"Karapur Tisk, Bicholim","Capacity":"2000 MTs"}},{"type":"Feature","geometry":{"type":"Point","coordinates":[73.809506,15.594108]},"properties":{"Name":"North Goa Civil Supplies Godown - Bardez","Mobile":0,"Address":"Dattawadi, Mapusa","Capacity":"1100 MTs"}},{"type":"Feature","geometry":{"type":"Point","coordinates":[74.01892,15.400078]},"properties":{"Name":"South Goa Civil Supplies Godown - Ponda","Mobile":0,"Address":"Nirankal Road,Bethoda Curti, Ponda","Capacity":"2000 MTs"}},{"type":"Feature","geometry":{"type":"Point","coordinates":[73.909097,15.40786]},"properties":{"Name":"South Goa Civil Supplies Godown - Salcete","Mobile":0,"Address":"Near Ferry Warf, Cortalim","Capacity":"2000 MTs"}},{"type":"Feature","geometry":{"type":"Point","coordinates":[73.909097,15.40786]},"properties":{"Name":"South Goa Civil Supplies Godown - Mormugao","Mobile":0,"Address":"Near Ferry Warf, Cortalim","Capacity":"2000 MTs"}},{"type":"Feature","geometry":{"type":"Point","coordinates":[74.106709,15.264996]},"properties":{"Name":"South Goa Civil Supplies Godown - Quepem","Mobile":0,"Address":"Curchorem","Capacity":"550 MTs"}},{"type":"Feature","geometry":{"type":"Point","coordinates":[74.140365,15.2259]},"properties":{"Name":"South Goa Civil Supplies Godown - Sanguem","Mobile":0,"Address":"Dando, Sanguem","Capacity":"500 MTs"}},{"type":"Feature","geometry":{"type":"Point","coordinates":[74.057864,15.006774]},"properties":{"Name":"South Goa Civil Supplies Godown - Canacona","Mobile":0,"Address":"Opposite Police Station, Canacona","Capacity":"550 MTs"}}]}