{
  "type": "FeatureCollection",
  "name": "apada-sakhis",
  "crs": {
    "type": "name",
    "properties": {
      "name": "urn:ogc:def:crs:OGC:1.3:CRS84"
    }
  },
  "features": [
    {
      "type": "Feature",
      "geometry": {
        "type": "Point",
        "coordinates": [
          74.02386,
          15.51651
        ]
      },
      "properties": {
        "Name": "Krutika",
        "Surname": "Khodginkar",
        "Mobile": 7821910642,
        "Contact 2": 9823126808
      }
    },
    {
      "type": "Feature",
      "geometry": {
        "type": "Point",
        "coordinates": [
          74.02413,
          15.51691
        ]
      },
      "properties": {
        "Name": "Nirali",
        "Surname": "Khodginkar",
        "Mobile": 8766678255,
        "Contact 2": 8007615719
      }
    },
    {
      "type": "Feature",
      "geometry": {
        "type": "Point",
        "coordinates": [
          74.22339,
          14.98312
        ]
      },
      "properties": {
        "Name": "Prachi",
        "Surname": "gaonkar",
        "Mobile": 9307642291,
        "Contact 2": 9822138701
      }
    },
    {
      "type": "Feature",
      "geometry": {
        "type": "Point",
        "coordinates": [
          73.99555,
          15.0532
        ]
      },
      "properties": {
        "Name": "Dipswi",
        "Surname": "Velip",
        "Mobile": 9529354250,
        "Contact 2": 9049988473
      }
    },
    {
      "type": "Feature",
      "geometry": {
        "type": "Point",
        "coordinates": [
          74.05252,
          15.03502
        ]
      },
      "properties": {
        "Name": "Jyoti",
        "Surname": "Vagonkar",
        "Mobile": 7498057268,
        "Contact 2": 9765871261
      }
    },
    {
      "type": "Feature",
      "geometry": {
        "type": "Point",
        "coordinates": [
          74.044036,
          15.266019
        ]
      },
      "properties": {
        "Name": "Surekha",
        "Surname": "Tamburi",
        "Mobile": 7066249628,
        "Contact 2": 8308189878
      }
    },
    {
      "type": "Feature",
      "geometry": {
        "type": "Point",
        "coordinates": [
          73.98334,
          15.27577
        ]
      },
      "properties": {
        "Name": "Aarthi",
        "Surname": "Appanawar",
        "Mobile": 9637108108,
        "Contact 2": 9552266994
      }
    },
    {
      "type": "Feature",
      "geometry": {
        "type": "Point",
        "coordinates": [
          73.86986,
          15.48443
        ]
      },
      "properties": {
        "Name": "Tanuja",
        "Surname": "Kholkar",
        "Mobile": 9049203656,
        "Contact 2": 9881417980
      }
    },
    {
      "type": "Feature",
      "geometry": {
        "type": "Point",
        "coordinates": [
          74.19128,
          15.35842
        ]
      },
      "properties": {
        "Name": "Pooja",
        "Surname": "Patil",
        "Mobile": 7875355895,
        "Contact 2": 9923044169
      }
    },
    {
      "type": "Feature",
      "geometry": {
        "type": "Point",
        "coordinates": [
          74.01612,
          15.48013
        ]
      },
      "properties": {
        "Name": "Mega ",
        "Surname": "Khedekar ",
        "Mobile": 8007433751,
        "Contact 2": 91569925805
      }
    },
    {
      "type": "Feature",
      "geometry": {
        "type": "Point",
        "coordinates": [
          74.19448,
          15.42495
        ]
      },
      "properties": {
        "Name": "Swati",
        "Surname": "Desai",
        "Mobile": 9420237057,
        "Contact 2": 9403500410
      }
    },
    {
      "type": "Feature",
      "geometry": {
        "type": "Point",
        "coordinates": [
          74.05665,
          15.44597
        ]
      },
      "properties": {
        "Name": "Aarti ",
        "Surname": "Naik",
        "Mobile": 7798103151,
        "Contact 2": 9158424951
      }
    },
    {
      "type": "Feature",
      "geometry": {
        "type": "Point",
        "coordinates": [
          74.0829,
          15.23112
        ]
      },
      "properties": {
        "Name": "Hemalatha  ",
        "Surname": "Poojary",
        "Mobile": 9423402915,
        "Contact 2": 9823514872
      }
    },
    {
      "type": "Feature",
      "geometry": {
        "type": "Point",
        "coordinates": [
          74.10791,
          15.5615
        ]
      },
      "properties": {
        "Name": "Abolem",
        "Surname": "Dabekar",
        "Mobile": 8411088832,
        "Contact 2": 7350586188
      }
    },
    {
      "type": "Feature",
      "geometry": {
        "type": "Point",
        "coordinates": [
          74.18875,
          15.58187
        ]
      },
      "properties": {
        "Name": "Niketa",
        "Surname": "Gawas",
        "Mobile": 9834878566,
        "Contact 2": 9518731663
      }
    },
    {
      "type": "Feature",
      "geometry": {
        "type": "Point",
        "coordinates": [
          73.995375,
          15.498316
        ]
      },
      "properties": {
        "Name": "Nitin",
        "Surname": "Savoikar",
        "Mobile": 8550916996,
        "Contact 2": null
      }
    },
    {
      "type": "Feature",
      "geometry": {
        "type": "Point",
        "coordinates": [
          73.8169,
          15.48202
        ]
      },
      "properties": {
        "Name": "Anjali",
        "Surname": "Kalsanawar",
        "Mobile": 8623031163,
        "Contact 2": 9049601163
      }
    },
    {
      "type": "Feature",
      "geometry": {
        "type": "Point",
        "coordinates": [
          73.87556,
          15.48891
        ]
      },
      "properties": {
        "Name": "Reeya",
        "Surname": "Chari",
        "Mobile": 9322115976,
        "Contact 2": 8007739689
      }
    },
    {
      "type": "Feature",
      "geometry": {
        "type": "Point",
        "coordinates": [
          73.89717,
          15.49577
        ]
      },
      "properties": {
        "Name": "Akanksha",
        "Surname": "Kuswaha",
        "Mobile": 9604189412,
        "Contact 2": 9921633270
      }
    },
    {
      "type": "Feature",
      "geometry": {
        "type": "Point",
        "coordinates": [
          74.10184,
          15.20146
        ]
      },
      "properties": {
        "Name": "Manjita",
        "Surname": "Gurav",
        "Mobile": 7769975330,
        "Contact 2": 8459591820
      }
    },
    {
      "type": "Feature",
      "geometry": {
        "type": "Point",
        "coordinates": [
          74.06936,
          15.52509
        ]
      },
      "properties": {
        "Name": "Shradha",
        "Surname": "Bhavimani",
        "Mobile": 9823467643,
        "Contact 2": 9823467643
      }
    },
    {
      "type": "Feature",
      "geometry": {
        "type": "Point",
        "coordinates": [
          73.9643,
          15.41923
        ]
      },
      "properties": {
        "Name": "Aparna",
        "Surname": "Gaude",
        "Mobile": 8698759198,
        "Contact 2": 9673856325
      }
    },
    {
      "type": "Feature",
      "geometry": {
        "type": "Point",
        "coordinates": [
          74.06912,
          15.52604
        ]
      },
      "properties": {
        "Name": "Alisha",
        "Surname": "Gaude",
        "Mobile": 7875448925,
        "Contact 2": 8806322598
      }
    },
    {
      "type": "Feature",
      "geometry": {
        "type": "Point",
        "coordinates": [
          73.85556,
          15.46378
        ]
      },
      "properties": {
        "Name": "Pooja",
        "Surname": "Malgaonkar",
        "Mobile": 9545789631,
        "Contact 2": 9545442376
      }
    },
    {
      "type": "Feature",
      "geometry": {
        "type": "Point",
        "coordinates": [
          73.81943,
          15.48948
        ]
      },
      "properties": {
        "Name": "Ashwini",
        "Surname": "Harijan",
        "Mobile": 9172980724,
        "Contact 2": 9860532669
      }
    },
    {
      "type": "Feature",
      "geometry": {
        "type": "Point",
        "coordinates": [
          73.96348,
          15.25676
        ]
      },
      "properties": {
        "Name": "Neha",
        "Surname": "Tandel",
        "Mobile": 7057956643,
        "Contact 2": 9657689744
      }
    },
    {
      "type": "Feature",
      "geometry": {
        "type": "Point",
        "coordinates": [
          74.00396,
          15.56332
        ]
      },
      "properties": {
        "Name": "Achal",
        "Surname": "Bhosle",
        "Mobile": 7798385178,
        "Contact 2": 8007318919
      }
    },
    {
      "type": "Feature",
      "geometry": {
        "type": "Point",
        "coordinates": [
          74.016,
          15.55733
        ]
      },
      "properties": {
        "Name": "Gauri",
        "Surname": "Parab",
        "Mobile": 9552265759,
        "Contact 2": 7020258254
      }
    },
    {
      "type": "Feature",
      "geometry": {
        "type": "Point",
        "coordinates": [
          73.72509,
          15.65552
        ]
      },
      "properties": {
        "Name": "Maya",
        "Surname": "Sawant",
        "Mobile": 9579421859,
        "Contact 2": 9545775962
      }
    },
    {
      "type": "Feature",
      "geometry": {
        "type": "Point",
        "coordinates": [
          73.80115,
          15.40593
        ]
      },
      "properties": {
        "Name": "Bhakti",
        "Surname": "Naik",
        "Mobile": 8530424137,
        "Contact 2": 9423055622
      }
    },
    {
      "type": "Feature",
      "geometry": {
        "type": "Point",
        "coordinates": [
          74.04696,
          15.57493
        ]
      },
      "properties": {
        "Name": "Prajakta",
        "Surname": "Parwar",
        "Mobile": 8007414649,
        "Contact 2": 8007414649
      }
    },
    {
      "type": "Feature",
      "geometry": {
        "type": "Point",
        "coordinates": [
          74.04683,
          15.57496
        ]
      },
      "properties": {
        "Name": "Sneha",
        "Surname": "Parwar",
        "Mobile": 8530529309,
        "Contact 2": 8530529309
      }
    },
    {
      "type": "Feature",
      "geometry": {
        "type": "Point",
        "coordinates": [
          74.02194,
          15.31043
        ]
      },
      "properties": {
        "Name": "Ranjita",
        "Surname": "Gaunkar",
        "Mobile": 7448031684,
        "Contact 2": 9922008933
      }
    },
    {
      "type": "Feature",
      "geometry": {
        "type": "Point",
        "coordinates": [
          74.12381,
          15.48278
        ]
      },
      "properties": {
        "Name": "Pushpa",
        "Surname": "Gaonkar",
        "Mobile": 9373862697,
        "Contact 2": 7588469178
      }
    },
    {
      "type": "Feature",
      "geometry": {
        "type": "Point",
        "coordinates": [
          74.17087,
          15.33729
        ]
      },
      "properties": {
        "Name": "Trupti",
        "Surname": "Gaonkar",
        "Mobile": 7378405514,
        "Contact 2": 8390961614
      }
    },
    {
      "type": "Feature",
      "geometry": {
        "type": "Point",
        "coordinates": [
          73.79456,
          15.40655
        ]
      },
      "properties": {
        "Name": "Suchitra",
        "Surname": "Dabolkar",
        "Mobile": 9850652804,
        "Contact 2": 7721049797
      }
    },
    {
      "type": "Feature",
      "geometry": {
        "type": "Point",
        "coordinates": [
          73.8082,
          15.38956
        ]
      },
      "properties": {
        "Name": "Renuka",
        "Surname": "Chodankar",
        "Mobile": 7972377180,
        "Contact 2": 9552415268
      }
    },
    {
      "type": "Feature",
      "geometry": {
        "type": "Point",
        "coordinates": [
          74.15631,
          15.41702
        ]
      },
      "properties": {
        "Name": "Neha",
        "Surname": "Sawant",
        "Mobile": 8275311420,
        "Contact 2": 9423164430
      }
    },
    {
      "type": "Feature",
      "geometry": {
        "type": "Point",
        "coordinates": [
          73.823574,
          15.394104
        ]
      },
      "properties": {
        "Name": "Sapna",
        "Surname": "Naik",
        "Mobile": 9067716382,
        "Contact 2": 8767290162
      }
    },
    {
      "type": "Feature",
      "geometry": {
        "type": "Point",
        "coordinates": [
          73.79301,
          15.64906
        ]
      },
      "properties": {
        "Name": "Mahima",
        "Surname": "Bhosle",
        "Mobile": 7843060257,
        "Contact 2": 9518762854
      }
    },
    {
      "type": "Feature",
      "geometry": {
        "type": "Point",
        "coordinates": [
          74.02088,
          15.32721
        ]
      },
      "properties": {
        "Name": "Sahishree",
        "Surname": "Naik",
        "Mobile": 8552986237,
        "Contact 2": 9921134117
      }
    },
    {
      "type": "Feature",
      "geometry": {
        "type": "Point",
        "coordinates": [
          73.85494,
          15.48435
        ]
      },
      "properties": {
        "Name": "Aanchal",
        "Surname": "Rivonkar",
        "Mobile": 8459697817,
        "Contact 2": 9529615611
      }
    },
    {
      "type": "Feature",
      "geometry": {
        "type": "Point",
        "coordinates": [
          74.232829,
          15.334935
        ]
      },
      "properties": {
        "Name": "Dipika",
        "Surname": "Damshekar",
        "Mobile": 8767122684,
        "Contact 2": null
      }
    },
    {
      "type": "Feature",
      "geometry": {
        "type": "Point",
        "coordinates": [
          74.18903,
          15.3551
        ]
      },
      "properties": {
        "Name": "Siddhi",
        "Surname": "Gaonkar",
        "Mobile": 7030161938,
        "Contact 2": 8806454438
      }
    },
    {
      "type": "Feature",
      "geometry": {
        "type": "Point",
        "coordinates": [
          73.98098,
          15.55999
        ]
      },
      "properties": {
        "Name": "Reshma",
        "Surname": "Parwar",
        "Mobile": 7030781501,
        "Contact 2": 8806186009
      }
    },
    {
      "type": "Feature",
      "geometry": {
        "type": "Point",
        "coordinates": [
          74.01186,
          15.40757
        ]
      },
      "properties": {
        "Name": "Mrushmaya",
        "Surname": "Naik",
        "Mobile": 8698466281,
        "Contact 2": 9923513496
      }
    },
    {
      "type": "Feature",
      "geometry": {
        "type": "Point",
        "coordinates": [
          73.88828,
          15.53256
        ]
      },
      "properties": {
        "Name": "Santoshi",
        "Surname": "Dhuri",
        "Mobile": 8999523825,
        "Contact 2": 7083615521
      }
    },
    {
      "type": "Feature",
      "geometry": {
        "type": "Point",
        "coordinates": [
          73.85142,
          15.45502
        ]
      },
      "properties": {
        "Name": "Mayuri",
        "Surname": "Kavlekar",
        "Mobile": 7875927348,
        "Contact 2": 9373745256
      }
    },
    {
      "type": "Feature",
      "geometry": {
        "type": "Point",
        "coordinates": [
          73.81775,
          15.48385
        ]
      },
      "properties": {
        "Name": "Kavita",
        "Surname": "Shiraguppi",
        "Mobile": 7875377413,
        "Contact 2": 9823538947
      }
    },
    {
      "type": "Feature",
      "geometry": {
        "type": "Point",
        "coordinates": [
          73.80451,
          15.5556
        ]
      },
      "properties": {
        "Name": "Siddhi",
        "Surname": "Kinlekar",
        "Mobile": null,
        "Contact 2": 8767405862
      }
    },
    {
      "type": "Feature",
      "geometry": {
        "type": "Point",
        "coordinates": [
          73.8743,
          15.48738
        ]
      },
      "properties": {
        "Name": "Madhavi",
        "Surname": "Kuri",
        "Mobile": 9373423679,
        "Contact 2": 7249064497
      }
    },
    {
      "type": "Feature",
      "geometry": {
        "type": "Point",
        "coordinates": [
          73.88845,
          15.4495
        ]
      },
      "properties": {
        "Name": "Avida",
        "Surname": "Debraganca",
        "Mobile": 9325343402,
        "Contact 2": 9420164121
      }
    },
    {
      "type": "Feature",
      "geometry": {
        "type": "Point",
        "coordinates": [
          73.89691,
          15.42965
        ]
      },
      "properties": {
        "Name": "Shristi",
        "Surname": "Vishwakarma",
        "Mobile": 7588719481,
        "Contact 2": 9588641844
      }
    },
    {
      "type": "Feature",
      "geometry": {
        "type": "Point",
        "coordinates": [
          73.81978,
          15.49278
        ]
      },
      "properties": {
        "Name": "Shehnaz",
        "Surname": "Momin",
        "Mobile": 9527480352,
        "Contact 2": 8408024556
      }
    },
    {
      "type": "Feature",
      "geometry": {
        "type": "Point",
        "coordinates": [
          73.82888,
          15.40228
        ]
      },
      "properties": {
        "Name": "Durva",
        "Surname": "Kushe",
        "Mobile": 9370387741,
        "Contact 2": 8208319407
      }
    },
    {
      "type": "Feature",
      "geometry": {
        "type": "Point",
        "coordinates": [
          73.85274,
          15.58962
        ]
      },
      "properties": {
        "Name": "Kanaka",
        "Surname": "Chari",
        "Mobile": 8975434708,
        "Contact 2": 8766775642
      }
    },
    {
      "type": "Feature",
      "geometry": {
        "type": "Point",
        "coordinates": [
          73.904734,
          15.623266
        ]
      },
      "properties": {
        "Name": "Saloni",
        "Surname": "Mapari",
        "Mobile": 8080394965,
        "Contact 2": 8806674864
      }
    },
    {
      "type": "Feature",
      "geometry": {
        "type": "Point",
        "coordinates": [
          73.87703,
          15.62302
        ]
      },
      "properties": {
        "Name": "Sanika",
        "Surname": "Shirodkar",
        "Mobile": 9284101899,
        "Contact 2": 9923070881
      }
    },
    {
      "type": "Feature",
      "geometry": {
        "type": "Point",
        "coordinates": [
          73.81466,
          15.46516
        ]
      },
      "properties": {
        "Name": "Veena",
        "Surname": "Saha",
        "Mobile": 7385601038,
        "Contact 2": 7387828524
      }
    },
    {
      "type": "Feature",
      "geometry": {
        "type": "Point",
        "coordinates": [
          73.95389,
          15.45056
        ]
      },
      "properties": {
        "Name": "Swarupa",
        "Surname": "Kumbhar",
        "Mobile": 9822261808,
        "Contact 2": 9284416753
      }
    },
    {
      "type": "Feature",
      "geometry": {
        "type": "Point",
        "coordinates": [
          74.01396,
          15.47135
        ]
      },
      "properties": {
        "Name": "Akansha",
        "Surname": "Naik",
        "Mobile": 9673280818,
        "Contact 2": 9673280818
      }
    },
    {
      "type": "Feature",
      "geometry": {
        "type": "Point",
        "coordinates": [
          73.93253,
          15.48537
        ]
      },
      "properties": {
        "Name": "Harshada",
        "Surname": "Kurtikar",
        "Mobile": 9545674119,
        "Contact 2": 9423060221
      }
    },
    {
      "type": "Feature",
      "geometry": {
        "type": "Point",
        "coordinates": [
          74.004839,
          15.493802
        ]
      },
      "properties": {
        "Name": "Shara",
        "Surname": "Dias",
        "Mobile": 9322589605,
        "Contact 2": 8446481426
      }
    },
    {
      "type": "Feature",
      "geometry": {
        "type": "Point",
        "coordinates": [
          73.89876,
          15.52073
        ]
      },
      "properties": {
        "Name": "Yashashri",
        "Surname": "Naidu",
        "Mobile": 8262842737,
        "Contact 2": 7972616128
      }
    },
    {
      "type": "Feature",
      "geometry": {
        "type": "Point",
        "coordinates": [
          73.946,
          15.42479
        ]
      },
      "properties": {
        "Name": "Monika",
        "Surname": "Sharma",
        "Mobile": 9371916520,
        "Contact 2": 8669493683
      }
    },
    {
      "type": "Feature",
      "geometry": {
        "type": "Point",
        "coordinates": [
          73.75586,
          15.70528
        ]
      },
      "properties": {
        "Name": "Saniya",
        "Surname": "Sawal",
        "Mobile": 7666137296,
        "Contact 2": 7350514810
      }
    },
    {
      "type": "Feature",
      "geometry": {
        "type": "Point",
        "coordinates": [
          74.06215,
          15.61918
        ]
      },
      "properties": {
        "Name": "Pooja",
        "Surname": "Paryekar",
        "Mobile": 7218508419,
        "Contact 2": 9403561837
      }
    },
    {
      "type": "Feature",
      "geometry": {
        "type": "Point",
        "coordinates": [
          73.76325,
          15.53448
        ]
      },
      "properties": {
        "Name": "Andrea",
        "Surname": "Mascarenhas",
        "Mobile": 9028804771,
        "Contact 2": 9096783127
      }
    },
    {
      "type": "Feature",
      "geometry": {
        "type": "Point",
        "coordinates": [
          73.80242,
          15.52908
        ]
      },
      "properties": {
        "Name": "Pratima",
        "Surname": "Pedenkar",
        "Mobile": 9545479218,
        "Contact 2": 9881062195
      }
    },
    {
      "type": "Feature",
      "geometry": {
        "type": "Point",
        "coordinates": [
          74.05553,
          14.99563
        ]
      },
      "properties": {
        "Name": "Khushi",
        "Surname": "Gupta",
        "Mobile": 8600099362,
        "Contact 2": 9049468162
      }
    },
    {
      "type": "Feature",
      "geometry": {
        "type": "Point",
        "coordinates": [
          74.241842,
          15.009236
        ]
      },
      "properties": {
        "Name": "Savita",
        "Surname": "Gaonkar",
        "Mobile": 7218266532,
        "Contact 2": null
      }
    },
    {
      "type": "Feature",
      "geometry": {
        "type": "Point",
        "coordinates": [
          74.16597,
          15.02946
        ]
      },
      "properties": {
        "Name": "Sonali",
        "Surname": "Velip",
        "Mobile": 9552192738,
        "Contact 2": 8459962118
      }
    },
    {
      "type": "Feature",
      "geometry": {
        "type": "Point",
        "coordinates": [
          74.05516,
          14.9995
        ]
      },
      "properties": {
        "Name": "Princy",
        "Surname": "Gupta",
        "Mobile": 8806342162,
        "Contact 2": 9049468162
      }
    },
    {
      "type": "Feature",
      "geometry": {
        "type": "Point",
        "coordinates": [
          null,
          null
        ]
      },
      "properties": {
        "Name": "Natasha",
        "Surname": "Nazareth",
        "Mobile": 9511748217,
        "Contact 2": 8412066507
      }
    },
    {
      "type": "Feature",
      "geometry": {
        "type": "Point",
        "coordinates": [
          73.81683,
          15.39193
        ]
      },
      "properties": {
        "Name": "Chelsea",
        "Surname": "Barreto",
        "Mobile": 9422450777,
        "Contact 2": 7770080069
      }
    },
    {
      "type": "Feature",
      "geometry": {
        "type": "Point",
        "coordinates": [
          73.83745,
          15.51277
        ]
      },
      "properties": {
        "Name": "Sakshi",
        "Surname": "Prabhudesai",
        "Mobile": 9322736985,
        "Contact 2": 8329082538
      }
    },
    {
      "type": "Feature",
      "geometry": {
        "type": "Point",
        "coordinates": [
          73.8218,
          15.47872
        ]
      },
      "properties": {
        "Name": "Zainab",
        "Surname": "Sayyed",
        "Mobile": 7058203533,
        "Contact 2": 7058203533
      }
    },
    {
      "type": "Feature",
      "geometry": {
        "type": "Point",
        "coordinates": [
          73.81404,
          15.47149
        ]
      },
      "properties": {
        "Name": "Alinda",
        "Surname": "Lemos",
        "Mobile": 9552870763,
        "Contact 2": 9552870763
      }
    },
    {
      "type": "Feature",
      "geometry": {
        "type": "Point",
        "coordinates": [
          73.8769,
          15.48979
        ]
      },
      "properties": {
        "Name": "Sweta",
        "Surname": "Kankonkar",
        "Mobile": 9637136447,
        "Contact 2": 9975975551
      }
    },
    {
      "type": "Feature",
      "geometry": {
        "type": "Point",
        "coordinates": [
          74.13446,
          15.12993
        ]
      },
      "properties": {
        "Name": "Varsha",
        "Surname": "Gaonkar",
        "Mobile": 9657365262,
        "Contact 2": 9763192973
      }
    }
  ]
}