{"type":"FeatureCollection","name":"fire-stations","crs":{"type":"name","properties":{"name":"urn:ogc:def:crs:OGC:1.3:CRS84"}},"features":[{"type":"Feature","geometry":{"type":"Point","coordinates":[73.94663,15.58962]},"properties":{"Id":1,"Station":"Bicholim FS","Station_1":"Loading...","Name":null,"Mobile":null,"Mobile2":null,"Landline":null,"Email":null}},{"type":"Feature","geometry":{"type":"Point","coordinates":[74.05806,15.00628]},"properties":{"Id":2,"Station":"Canacona FS","Station_1":"Fire Station Canacona","Name":"Shri. Dhiraj Dessai","Mobile":7391047145,"Mobile2":8308846743,"Landline":"2633500 2633311/101","Email":"can-fire.goa@nic.in"}},{"type":"Feature","geometry":{"type":"Point","coordinates":[74.10357,15.26025]},"properties":{"Id":3,"Station":"Curchorem FS","Station_1":"Fire Station Curchorem","Name":"Shri. Damodar Zambaulikar","Mobile":7391047146,"Mobile2":9763717049,"Landline":"2650306 2650301/101","Email":"cur-fire.goa@nic.in"}},{"type":"Feature","geometry":{"type":"Point","coordinates":[73.8174,15.48691]},"properties":{"Id":4,"Station":"FFHQ FS","Station_1":"Fire Force Headquarters","Name":"Shri. Dilip Gawas","Mobile":8308846750,"Mobile2":7391047132,"Landline":"0832-2485400","Email":"hq-fire.goa@nic.in"}},{"type":"Feature","geometry":{"type":"Point","coordinates":[73.96251,15.46602]},"properties":{"Id":5,"Station":"Kundaim FS","Station_1":"Fire Station Kundaim","Name":"Shri. Sushil Morajkar","Mobile":7391047156,"Mobile2":9763717059,"Landline":2395455,"Email":"kfs-fire.goa@nic.in"}},{"type":"Feature","geometry":{"type":"Point","coordinates":[73.80877,15.58984]},"properties":{"Id":6,"Station":"Mapusa FS","Station_1":"Loading...","Name":null,"Mobile":null,"Mobile2":null,"Landline":null,"Email":null}},{"type":"Feature","geometry":{"type":"Point","coordinates":[73.97033,15.26931]},"properties":{"Id":7,"Station":"Margao FS","Station_1":"Loading...","Name":null,"Mobile":null,"Mobile2":null,"Landline":null,"Email":null}},{"type":"Feature","geometry":{"type":"Point","coordinates":[73.91408,15.50009]},"properties":{"Id":8,"Station":"Old Goa FS","Station_1":"Fire Station Old Goa","Name":" Shri. R D Parab","Mobile":7391047155,"Mobile2":8408091254,"Landline":2285344,"Email":"olg-fire.goa@nic.in"}},{"type":"Feature","geometry":{"type":"Point","coordinates":[73.81656,15.48577]},"properties":{"Id":9,"Station":"Panaji FS","Station_1":"Loading...","Name":null,"Mobile":null,"Mobile2":null,"Landline":null,"Email":null}},{"type":"Feature","geometry":{"type":"Point","coordinates":[73.79632,15.71982]},"properties":{"Id":10,"Station":"Pernem FS","Station_1":"Fire Station Pernem","Name":"Shri. N. H. Parwar","Mobile":7391047133,"Mobile2":8308846751,"Landline":"2201201/ 2201393/101","Email":"per-fire.goa@nic.in"}},{"type":"Feature","geometry":{"type":"Point","coordinates":[73.79334,15.53304]},"properties":{"Id":11,"Station":"Pilerne FS","Station_1":"Fire Station Pilerne","Name":"Shri. D. G. Pednekar","Mobile":7391047141,"Mobile2":9420596274,"Landline":"2407100 / 2407101","Email":"pil-fire.goa@nic.in"}},{"type":"Feature","geometry":{"type":"Point","coordinates":[74.00276,15.40309]},"properties":{"Id":12,"Station":"Ponda FS","Station_1":"Fire Station Ponda","Name":"Shri. Sushil Morajkar","Mobile":7391047150,"Mobile2":8308846759,"Landline":"2312044 2315863/101","Email":"pnd-fire.goa@gov.in"}},{"type":"Feature","geometry":{"type":"Point","coordinates":[74.13011,15.52995]},"properties":{"Id":13,"Station":"Valpoi FS","Station_1":"Fire Station Valpoi","Name":"Shri. Santosh Gawas","Mobile":7391047165,"Mobile2":8308846753,"Landline":"2374444/101","Email":"vap-fire.goa@nic.in"}},{"type":"Feature","geometry":{"type":"Point","coordinates":[73.8207,15.4003]},"properties":{"Id":14,"Station":"Vasco FS","Station_1":"Loading...","Name":null,"Mobile":null,"Mobile2":null,"Landline":null,"Email":null}},{"type":"Feature","geometry":{"type":"Point","coordinates":[73.93567,15.3694]},"properties":{"Id":15,"Station":"Verna FS","Station_1":"Fire Station Verna","Name":"Shri. Dilesh Gaonkar","Mobile":7391047148,"Mobile2":8308846762,"Landline":"2887721/101","Email":"vrn-fire.goa@nic.in"}},{"type":"Feature","geometry":{"type":"Point","coordinates":[73.82948,15.5228]},"properties":{"Id":16,"Station":"Porvorim FS","Station_1":"Fire Station Porvorim","Name":"Shri. D. G. Pednekar","Mobile":7391047140,"Mobile2":9420596274,"Landline":"2411122/101","Email":"por-fire.goa@gov.in"}},{"type":"Feature","geometry":{"type":"Point","coordinates":[74.0211,15.1863]},"properties":{"Id":17,"Station":"Cuncolim FS","Station_1":"Fire Station Cuncolim","Name":"Shri. Truptesh Naik","Mobile":7391047147,"Mobile2":8308846742,"Landline":"2225500 2425101 2423101","Email":"cun-fire.goa@gov.in"}}]}