{"type":"FeatureCollection","name":"mutual-aid agencies","crs":{"type":"name","properties":{"name":"urn:ogc:def:crs:OGC:1.3:CRS84"}},"features":[{"type":"Feature","geometry":{"type":"Point","coordinates":[73.94677,15.37597]},"properties":{"Type":"Industry","Name":"Bharat Petroleum Corporation Ltd","Services Offered":null,"Resources Available":null,"Coverage Area":null,"Contact Person":null,"Mobile":0}},{"type":"Feature","geometry":{"type":"Point","coordinates":[73.94471,15.49556]},"properties":{"Type":"Industry","Name":"Deccan Fine Chemicals INDIA Pvt Ltd","Services Offered":null,"Resources Available":null,"Coverage Area":null,"Contact Person":null,"Mobile":0}},{"type":"Feature","geometry":{"type":"Point","coordinates":[73.82422,15.40012]},"properties":{"Type":"Industry","Name":"Goa Shipyard Ltd","Services Offered":null,"Resources Available":null,"Coverage Area":null,"Contact Person":null,"Mobile":0}},{"type":"Feature","geometry":{"type":"Point","coordinates":[73.80764,15.39992]},"properties":{"Type":"Industry","Name":"Hindustan Petroleum Corporation Ltd","Services Offered":null,"Resources Available":null,"Coverage Area":null,"Contact Person":null,"Mobile":0}},{"type":"Feature","geometry":{"type":"Point","coordinates":[73.97781,15.49109]},"properties":{"Type":"Industry","Name":"Hindustan Petroleum Corporation Ltd","Services Offered":null,"Resources Available":null,"Coverage Area":null,"Contact Person":null,"Mobile":0}},{"type":"Feature","geometry":{"type":"Point","coordinates":[73.84624,15.36999]},"properties":{"Type":"Industry","Name":"Indian Coast Guard","Services Offered":null,"Resources Available":null,"Coverage Area":null,"Contact Person":null,"Mobile":0}},{"type":"Feature","geometry":{"type":"Point","coordinates":[73.83879,15.37485]},"properties":{"Type":"Industry","Name":"Indian Navy (NAD)","Services Offered":null,"Resources Available":null,"Coverage Area":null,"Contact Person":null,"Mobile":0}},{"type":"Feature","geometry":{"type":"Point","coordinates":[73.8022,15.40509]},"properties":{"Type":"Industry","Name":"Indian Oil Corporation Ltd","Services Offered":null,"Resources Available":null,"Coverage Area":null,"Contact Person":null,"Mobile":0}},{"type":"Feature","geometry":{"type":"Point","coordinates":[73.81847,15.39914]},"properties":{"Type":"Industry","Name":"INS Gomantak","Services Offered":null,"Resources Available":null,"Coverage Area":null,"Contact Person":null,"Mobile":0}},{"type":"Feature","geometry":{"type":"Point","coordinates":[73.83575,15.39189]},"properties":{"Type":"Industry","Name":"INS Hansa","Services Offered":null,"Resources Available":null,"Coverage Area":null,"Contact Person":null,"Mobile":0}},{"type":"Feature","geometry":{"type":"Point","coordinates":[73.80475,15.40401]},"properties":{"Type":"Industry","Name":"MPT Fire Services Mormugao","Services Offered":null,"Resources Available":null,"Coverage Area":null,"Contact Person":null,"Mobile":0}},{"type":"Feature","geometry":{"type":"Point","coordinates":[73.78952,15.41283]},"properties":{"Type":"Industry","Name":"Western Indian Shipyard Ltd","Services Offered":null,"Resources Available":null,"Coverage Area":null,"Contact Person":null,"Mobile":0}},{"type":"Feature","geometry":{"type":"Point","coordinates":[73.87769,15.38016]},"properties":{"Type":"Industry","Name":"Zuari Agrochemicals Ltd","Services Offered":null,"Resources Available":null,"Coverage Area":null,"Contact Person":null,"Mobile":0}},{"type":"Feature","geometry":{"type":"Point","coordinates":[73.88525,15.38448]},"properties":{"Type":"Industry","Name":"Zuari Indian Oil Tanking Pvt Ltd","Services Offered":null,"Resources Available":null,"Coverage Area":null,"Contact Person":null,"Mobile":0}}]}