{"type":"FeatureCollection","name":"police-stations","crs":{"type":"name","properties":{"name":"urn:ogc:def:crs:OGC:1.3:CRS84"}},"features":[{"type":"Feature","geometry":{"type":"Point","coordinates":[73.824395,15.499821]},"properties":{"Station":null,"SHO Name":null,"Mobile":null,"Contact No":null,"Email":null,"Jurisdiction Area":null,"Personnel Strength":null,"Vehicles Available":null,"Wireless Available":null}},{"type":"Feature","geometry":{"type":"Point","coordinates":[73.914629,15.501129]},"properties":{"Station":null,"SHO Name":null,"Mobile":null,"Contact No":null,"Email":null,"Jurisdiction Area":null,"Personnel Strength":null,"Vehicles Available":null,"Wireless Available":null}},{"type":"Feature","geometry":{"type":"Point","coordinates":[73.903339,15.418797]},"properties":{"Station":"Agacaim","SHO Name":"Anant A. Gaonkar","Mobile":7875756023,"Contact No":"0832-2218000","Email":"piagacaim@goapolice.gov.in","Jurisdiction Area":null,"Personnel Strength":null,"Vehicles Available":null,"Wireless Available":null}},{"type":"Feature","geometry":{"type":"Point","coordinates":[73.808851,15.591515]},"properties":{"Station":"Mapusa","SHO Name":"Nikhil N. Palekar","Mobile":7875756026,"Contact No":"0832-2262231","Email":"pimapusa@goapolice.gov.in","Jurisdiction Area":null,"Personnel Strength":null,"Vehicles Available":null,"Wireless Available":null}},{"type":"Feature","geometry":{"type":"Point","coordinates":[73.743689,15.59101]},"properties":{"Station":"Loading...","SHO Name":null,"Mobile":null,"Contact No":null,"Email":null,"Jurisdiction Area":null,"Personnel Strength":null,"Vehicles Available":null,"Wireless Available":null}},{"type":"Feature","geometry":{"type":"Point","coordinates":[73.796693,15.717112]},"properties":{"Station":"Pernem","SHO Name":"Sachin Lokre","Mobile":7875756028,"Contact No":"0832-2201233","Email":"pipernem@goapolice.gov.in","Jurisdiction Area":null,"Personnel Strength":null,"Vehicles Available":null,"Wireless Available":null}},{"type":"Feature","geometry":{"type":"Point","coordinates":[73.82468,15.619728]},"properties":{"Station":"Colvale","SHO Name":"Sanjit B. Kandolkar","Mobile":7875756234,"Contact No":"0832-2993234","Email":"picolvale@goapolice.gov.in","Jurisdiction Area":null,"Personnel Strength":null,"Vehicles Available":null,"Wireless Available":null}},{"type":"Feature","geometry":{"type":"Point","coordinates":[73.834477,15.517525]},"properties":{"Station":"Porvorim","SHO Name":"Rahul Parab","Mobile":7875756030,"Contact No":"0832-2417704","Email":"piporvorim@goapolice.gov.in","Jurisdiction Area":null,"Personnel Strength":null,"Vehicles Available":null,"Wireless Available":null}},{"type":"Feature","geometry":{"type":"Point","coordinates":[73.779682,15.543124]},"properties":{"Station":"Calangute","SHO Name":"Paresh G. Naik","Mobile":7875756031,"Contact No":"0832-2278284","Email":"picalangute@goapolice.gov.in","Jurisdiction Area":null,"Personnel Strength":null,"Vehicles Available":null,"Wireless Available":null}},{"type":"Feature","geometry":{"type":"Point","coordinates":[73.792954,15.535516]},"properties":{"Station":"Saligao","SHO Name":"Milind M. Bhuimbar","Mobile":7875756078,"Contact No":"0832-2278100","Email":"pisaligao@goapolice.gov.in","Jurisdiction Area":null,"Personnel Strength":null,"Vehicles Available":null,"Wireless Available":null}},{"type":"Feature","geometry":{"type":"Point","coordinates":[73.959188,15.584871]},"properties":{"Station":"Bicholim","SHO Name":"Vijay Rane Sardesai","Mobile":7875756033,"Contact No":"0832-2362233","Email":"pibicholim@goapolice.gov.in","Jurisdiction Area":null,"Personnel Strength":null,"Vehicles Available":null,"Wireless Available":null}},{"type":"Feature","geometry":{"type":"Point","coordinates":[74.138775,15.532023]},"properties":{"Station":"Valpoi","SHO Name":"Videsh P. Shirdokar","Mobile":7875756034,"Contact No":"0832-2374255","Email":"pivalpoi@goapolice.gov.in","Jurisdiction Area":null,"Personnel Strength":null,"Vehicles Available":null,"Wireless Available":null}},{"type":"Feature","geometry":{"type":"Point","coordinates":[73.956799,15.274557]},"properties":{"Station":"Margao Town","SHO Name":"Suraj G. Samant","Mobile":7875756039,"Contact No":"0832-2705095","Email":"pimargao@goapolice.gov.in","Jurisdiction Area":null,"Personnel Strength":null,"Vehicles Available":null,"Wireless Available":null}},{"type":"Feature","geometry":{"type":"Point","coordinates":[73.974486,15.307712]},"properties":{"Station":"Maina Curtorim","SHO Name":"Arun Dessai","Mobile":7875756042,"Contact No":"0832-2991307","Email":"pi-mainacurtorim@goapolice.gov.in","Jurisdiction Area":null,"Personnel Strength":null,"Vehicles Available":null,"Wireless Available":null}},{"type":"Feature","geometry":{"type":"Point","coordinates":[73.973551,15.295885]},"properties":{"Station":"Fatorda","SHO Name":"Nathan De Almeida","Mobile":7875756181,"Contact No":"0832-2741000","Email":"pi-fatorda@goapolice.gov.in","Jurisdiction Area":null,"Personnel Strength":null,"Vehicles Available":null,"Wireless Available":null}},{"type":"Feature","geometry":{"type":"Point","coordinates":[73.926584,15.277818]},"properties":{"Station":"Colva","SHO Name":"Vikram Naik","Mobile":7875756040,"Contact No":"0832-2788396","Email":"pi-colva@goapolice.gov.in","Jurisdiction Area":null,"Personnel Strength":null,"Vehicles Available":null,"Wireless Available":null}},{"type":"Feature","geometry":{"type":"Point","coordinates":[74.010183,15.168828]},"properties":{"Station":"Loading...","SHO Name":null,"Mobile":null,"Contact No":null,"Email":null,"Jurisdiction Area":null,"Personnel Strength":null,"Vehicles Available":null,"Wireless Available":null}},{"type":"Feature","geometry":{"type":"Point","coordinates":[74.076196,15.226109]},"properties":{"Station":"Quepem","SHO Name":"Arjun Sangodkar","Mobile":7875756044,"Contact No":"0832-2662253","Email":"pi-quepem@goapolice.gov.in","Jurisdiction Area":null,"Personnel Strength":null,"Vehicles Available":null,"Wireless Available":null}},{"type":"Feature","geometry":{"type":"Point","coordinates":[74.107324,15.261262]},"properties":{"Station":"Curchorem","SHO Name":"Melson Colaco","Mobile":7875756045,"Contact No":"0832-2650568","Email":"pi-curchorem@goapolice.gov.in","Jurisdiction Area":null,"Personnel Strength":null,"Vehicles Available":null,"Wireless Available":null}},{"type":"Feature","geometry":{"type":"Point","coordinates":[74.15417,15.228535]},"properties":{"Station":"Sanguem","SHO Name":"Ditendra Naik","Mobile":7875756046,"Contact No":"0832-2604233","Email":"pi-sanguem@goapolice.gov.in","Jurisdiction Area":null,"Personnel Strength":null,"Vehicles Available":null,"Wireless Available":null}},{"type":"Feature","geometry":{"type":"Point","coordinates":[74.058022,15.006671]},"properties":{"Station":"Canacona","SHO Name":"Harish Raut Dessai","Mobile":7875756047,"Contact No":"0832-2633357","Email":"picanacona@goapolice.gov.in","Jurisdiction Area":null,"Personnel Strength":null,"Vehicles Available":null,"Wireless Available":null}},{"type":"Feature","geometry":{"type":"Point","coordinates":[73.807321,15.396984]},"properties":{"Station":"Vasco","SHO Name":"Vaibhav Naik","Mobile":7875756049,"Contact No":"0832-2512304","Email":"pi-vasco@goapolice.gov.in","Jurisdiction Area":null,"Personnel Strength":null,"Vehicles Available":null,"Wireless Available":null}},{"type":"Feature","geometry":{"type":"Point","coordinates":[73.931878,15.35119]},"properties":{"Station":"Loading...","SHO Name":null,"Mobile":null,"Contact No":null,"Email":null,"Jurisdiction Area":null,"Personnel Strength":null,"Vehicles Available":null,"Wireless Available":null}},{"type":"Feature","geometry":{"type":"Point","coordinates":[73.807343,15.397046]},"properties":{"Station":"Vasco Railway","SHO Name":"Amarnath Passi","Mobile":7875756052,"Contact No":"0832-2512488","Email":"pivascorailway@goapolice.gov.in","Jurisdiction Area":null,"Personnel Strength":null,"Vehicles Available":null,"Wireless Available":null}},{"type":"Feature","geometry":{"type":"Point","coordinates":[73.80196,15.404372]},"properties":{"Station":"Loading...","SHO Name":null,"Mobile":null,"Contact No":null,"Email":null,"Jurisdiction Area":null,"Personnel Strength":null,"Vehicles Available":null,"Wireless Available":null}},{"type":"Feature","geometry":{"type":"Point","coordinates":[74.00428,15.399516]},"properties":{"Station":"Ponda","SHO Name":"Vijaynath A. Kavlekar","Mobile":7875756036,"Contact No":"0832-2313101","Email":"piponda@goapolice.gov.in","Jurisdiction Area":null,"Personnel Strength":null,"Vehicles Available":null,"Wireless Available":null}},{"type":"Feature","geometry":{"type":"Point","coordinates":[74.242998,15.34096]},"properties":{"Station":"Collem","SHO Name":"Raghoba H. Kamat","Mobile":7875756037,"Contact No":"0832-2600233","Email":"picollem@goapolice.gov.in","Jurisdiction Area":null,"Personnel Strength":null,"Vehicles Available":null,"Wireless Available":null}}]}