{"type":"FeatureCollection","name":"river-gauges","crs":{"type":"name","properties":{"name":"urn:ogc:def:crs:OGC:1.3:CRS84"}},"features":[{"type":"Feature","geometry":{"type":"Point","coordinates":[74.050833,15.228889]},"properties":{"Call Sign":"AVD","Display Name":"Avedem Village (Kushavati River)","Date":"2/1/26 15:30:0","Warning Level":3.65,"Danger Level":4.15,"Highest Danger Level":5.65,"Water Level":0.73}},{"type":"Feature","geometry":{"type":"Point","coordinates":[73.950278,15.588056]},"properties":{"Call Sign":"BIK","Display Name":"Kadamba Bus Stand (Bicholim River)","Date":"11/12/25 5:30:0","Warning Level":4.7,"Danger Level":5.2,"Highest Danger Level":6.2,"Water Level":1.23}},{"type":"Feature","geometry":{"type":"Point","coordinates":[73.946111,15.590833]},"properties":{"Call Sign":"BIS","Display Name":"Shantadurga School (Bicholim River)","Date":"6/10/25 18:30:0","Warning Level":4.7,"Danger Level":5.2,"Highest Danger Level":6.2,"Water Level":5.15}},{"type":"Feature","geometry":{"type":"Point","coordinates":[73.998611,15.175278]},"properties":{"Call Sign":"CUN","Display Name":"Cuncolim (Bhiunsa Nalla)","Date":"8/9/25 14:30:0","Warning Level":5,"Danger Level":5.4,"Highest Danger Level":6.2,"Water Level":0.5}},{"type":"Feature","geometry":{"type":"Point","coordinates":[74.175,15.215278]},"properties":{"Call Sign":"DHM","Display Name":"Damal Bridge  Sanguem (Guleli River)","Date":null,"Warning Level":11.5,"Danger Level":12,"Highest Danger Level":12,"Water Level":5.34}},{"type":"Feature","geometry":{"type":"Point","coordinates":[74.092222,15.468611]},"properties":{"Call Sign":"GNJ","Display Name":"Ganjem Village (Madei River)","Date":"2/1/26 12:30:0","Warning Level":10,"Danger Level":10.5,"Highest Danger Level":12.5,"Water Level":6.11}},{"type":"Feature","geometry":{"type":"Point","coordinates":[74.062778,15.611944]},"properties":{"Call Sign":"KER","Display Name":"Keri  Sattari (Gotolli Nalla)","Date":"2/1/26 7:30:0","Warning Level":25,"Danger Level":25.57,"Highest Danger Level":26.57,"Water Level":34.22}},{"type":"Feature","geometry":{"type":"Point","coordinates":[73.950833,15.281944]},"properties":{"Call Sign":"MUN","Display Name":"Mungul Bridge  Margao (Sal River)","Date":"2/1/26 13:30:0","Warning Level":2.95,"Danger Level":3.25,"Highest Danger Level":3.85,"Water Level":0.49}},{"type":"Feature","geometry":{"type":"Point","coordinates":[74.054444,15.411389]},"properties":{"Call Sign":"OPA","Display Name":"OPA Barrage (Khandepar River)","Date":"2/1/26 15:30:0","Warning Level":7.8,"Danger Level":8.3,"Highest Danger Level":9.3,"Water Level":5.23}},{"type":"Feature","geometry":{"type":"Point","coordinates":[74.095556,14.961667]},"properties":{"Call Sign":"ORD","Display Name":"Ordhofond Bridge (Talpona River)","Date":"16/11/25 7:30:0","Warning Level":7.99,"Danger Level":8.49,"Highest Danger Level":8.49,"Water Level":0}},{"type":"Feature","geometry":{"type":"Point","coordinates":[74.004722,15.4025]},"properties":{"Call Sign":"PND","Display Name":"PONDA (Kapileshwari Nalla)","Date":"2/1/26 15:30:0","Warning Level":11.01,"Danger Level":11.3,"Highest Danger Level":11.6,"Water Level":13.97}},{"type":"Feature","geometry":{"type":"Point","coordinates":[74.096389,14.996389]},"properties":{"Call Sign":"PNG","Display Name":"Poinguinim (Galjibag River)","Date":"2/1/26 15:30:0","Warning Level":4.86,"Danger Level":5.36,"Highest Danger Level":5.36,"Water Level":2.09}},{"type":"Feature","geometry":{"type":"Point","coordinates":[74.008056,15.566667]},"properties":{"Call Sign":"SQD","Display Name":"Dattatreya Temple  Sanquelim (Valvonta River)","Date":"2/1/26 15:30:0","Warning Level":5,"Danger Level":5.5,"Highest Danger Level":7.8,"Water Level":1.55}},{"type":"Feature","geometry":{"type":"Point","coordinates":[74.006667,15.5625]},"properties":{"Call Sign":"SQM","Display Name":"Sanquelim Market (Valvonta River)","Date":"18/12/25 16:30:0","Warning Level":3.5,"Danger Level":4,"Highest Danger Level":8.2,"Water Level":1.32}},{"type":"Feature","geometry":{"type":"Point","coordinates":[74.149444,15.54]},"properties":{"Call Sign":"VLP","Display Name":"Valpoi  Sattari (Veluz River)","Date":"7/9/25 21:30:0","Warning Level":25.5,"Danger Level":26,"Highest Danger Level":27.5,"Water Level":20.95}}]}