{"type":"FeatureCollection","name":"schools","crs":{"type":"name","properties":{"name":"urn:ogc:def:crs:OGC:1.3:CRS84"}},"features":[{"type":"Feature","geometry":{"type":"Point","coordinates":[74.10874,15.25746]},"properties":{"Name":"Cambridge Primary School, Curchorem. 403706.","Principal":"Matilda fernandes","Mobile":9405140993,"Email":"cambridgecurchorem@yahoo.com","Capacity":151,"Panchayat":"Curchorem Cacora","Type":"Govt","Building Condition":null,"Used as Shelter":null,"Water Supply":null,"Toilets":null,"Classroom Count":null,"Level":"Primary / High / College"}},{"type":"Feature","geometry":{"type":"Point","coordinates":[74.10873,15.258]},"properties":{"Name":"Chetna Education Society School & Rehabilitation Centre for Special Children, Curchorem-Goa","Principal":"Rubiya kakodkar","Mobile":9822982222,"Email":"chetatrustgoa@gmail.com","Capacity":125,"Panchayat":"Curchorem Cacora","Type":"Private","Building Condition":null,"Used as Shelter":null,"Water Supply":null,"Toilets":null,"Classroom Count":null,"Level":null}},{"type":"Feature","geometry":{"type":"Point","coordinates":[74.1128,15.1552]},"properties":{"Name":"Fr. Agnel Primary School, Curchorem,","Principal":"Fr. Vital Miranda","Mobile":26686031,"Email":"fapschoolcurchorem@gmail.com","Capacity":77,"Panchayat":"Rivona","Type":null,"Building Condition":null,"Used as Shelter":null,"Water Supply":null,"Toilets":null,"Classroom Count":null,"Level":null}},{"type":"Feature","geometry":{"type":"Point","coordinates":[74.10264,15.26322]},"properties":{"Name":"Chandrabhaga Jan Utkarsh Pry School, Curchorem","Principal":"Minaxi naik","Mobile":null,"Email":"chandrabhagaschool@gmail.com","Capacity":80,"Panchayat":"Curchorem Cacora","Type":null,"Building Condition":null,"Used as Shelter":null,"Water Supply":null,"Toilets":null,"Classroom Count":null,"Level":null}},{"type":"Feature","geometry":{"type":"Point","coordinates":[74.08704,15.222]},"properties":{"Name":"Our Lady Mother of Poor High School, Tilamol, Sheldem","Principal":"Isabel marta cardoso","Mobile":2662539,"Email":"olmph123@ymail.com","Capacity":385,"Panchayat":"Xeldem","Type":null,"Building Condition":null,"Used as Shelter":null,"Water Supply":null,"Toilets":null,"Classroom Count":null,"Level":null}},{"type":"Feature","geometry":{"type":"Point","coordinates":[74.08704,15.222]},"properties":{"Name":"Our Lady Mother of Poor Primary School, Tilamol","Principal":"Isabel marta cardozo","Mobile":2662539,"Email":"olmph123@ymail.com","Capacity":244,"Panchayat":"Xeldem","Type":null,"Building Condition":null,"Used as Shelter":null,"Water Supply":null,"Toilets":null,"Classroom Count":null,"Level":null}},{"type":"Feature","geometry":{"type":"Point","coordinates":[74.09702,15.18896]},"properties":{"Name":"G.P.S. Zambaulim","Principal":"Sorojini Dessai","Mobile":9359780980,"Email":"ghszambaulim@yahoo.com","Capacity":23,"Panchayat":"Rivona","Type":null,"Building Condition":null,"Used as Shelter":null,"Water Supply":null,"Toilets":null,"Classroom Count":null,"Level":null}},{"type":"Feature","geometry":{"type":"Point","coordinates":[74.10506,15.18048]},"properties":{"Name":"Our Lady of Fatima High School, Rivona,","Principal":"Fr. Janico Richard crasto","Mobile":935678980,"Email":"01fhsr099.04@gmail.com","Capacity":169,"Panchayat":"Rivona","Type":null,"Building Condition":null,"Used as Shelter":null,"Water Supply":null,"Toilets":null,"Classroom Count":null,"Level":null}},{"type":"Feature","geometry":{"type":"Point","coordinates":[74.13146,15.14824]},"properties":{"Name":"Govt. High School, Colamb, Rivona, Sanguem.","Principal":"Veniza cardozo","Mobile":9049443773,"Email":"ghscolriv@gmail.com","Capacity":172,"Panchayat":"Rivona","Type":null,"Building Condition":null,"Used as Shelter":null,"Water Supply":null,"Toilets":null,"Classroom Count":null,"Level":null}},{"type":"Feature","geometry":{"type":"Point","coordinates":[74.07357,15.21209]},"properties":{"Name":"Tiny Tots K.G. & Primary School, Quepem. 403 705.","Principal":"Lynette goes","Mobile":9822228727,"Email":"tinytotsaucpcm@yahoo.com","Capacity":250,"Panchayat":"Quepem","Type":null,"Building Condition":null,"Used as Shelter":null,"Water Supply":null,"Toilets":null,"Classroom Count":null,"Level":null}},{"type":"Feature","geometry":{"type":"Point","coordinates":[74.07014,15.21453]},"properties":{"Name":"Holy Cross Institute, Quepem 403 705.","Principal":"Shari Rashmi Dsouza","Mobile":2662076,"Email":"hollycross_Quepem@yahoo.com","Capacity":540,"Panchayat":"Quepem","Type":null,"Building Condition":null,"Used as Shelter":null,"Water Supply":null,"Toilets":null,"Classroom Count":null,"Level":null}},{"type":"Feature","geometry":{"type":"Point","coordinates":[74.10656,15.17256]},"properties":{"Name":"Our Lady of Rosary Pry. School, Fatimawado,Rivona ,Sanguem","Principal":"Fr. Janico Richard crasto","Mobile":8669521456,"Email":"rosrayprimarysanguem0104@gmail.com","Capacity":95,"Panchayat":"Rivona","Type":null,"Building Condition":null,"Used as Shelter":null,"Water Supply":null,"Toilets":null,"Classroom Count":null,"Level":null}},{"type":"Feature","geometry":{"type":"Point","coordinates":[73.963206,15.454159]},"properties":{"Name":"International Sadguru Gurukulam Tapobhumi, Kundaim-Ponda","Principal":"Mrs. Isha Rupesh Naik Bhamaikar","Mobile":7507771733,"Email":"isgscholl.ind@gmail.com","Capacity":112,"Panchayat":"Kundaim","Type":null,"Building Condition":null,"Used as Shelter":null,"Water Supply":null,"Toilets":null,"Classroom Count":null,"Level":null}},{"type":"Feature","geometry":{"type":"Point","coordinates":[73.962907,15.454116]},"properties":{"Name":"Sadguru Dnyanpeeth Shree Kshetra Tapobhumi, Kundaim","Principal":"Amita R Gawas","Mobile":7507771733,"Email":"sadgurudnyanpeeth@gmail.com","Capacity":91,"Panchayat":"Kundaim","Type":null,"Building Condition":null,"Used as Shelter":null,"Water Supply":null,"Toilets":null,"Classroom Count":null,"Level":null}},{"type":"Feature","geometry":{"type":"Point","coordinates":[73.963367,15.454031]},"properties":{"Name":"New English School, Kundaim Ponda","Principal":"Mrs Neeta P. Mardolkar","Mobile":7498180117,"Email":"nes.kundai@gmail.com","Capacity":152,"Panchayat":"Kundaim","Type":null,"Building Condition":null,"Used as Shelter":null,"Water Supply":null,"Toilets":null,"Classroom Count":null,"Level":null}},{"type":"Feature","geometry":{"type":"Point","coordinates":[73.961514,15.463392]},"properties":{"Name":"G.P.S. Kundaim Bazar","Principal":"Mrs. Rewa R. Naik","Mobile":9370792323,"Email":"gpsbzkundai53@gmail.com","Capacity":74,"Panchayat":"Kundaim","Type":null,"Building Condition":null,"Used as Shelter":null,"Water Supply":null,"Toilets":null,"Classroom Count":null,"Level":null}},{"type":"Feature","geometry":{"type":"Point","coordinates":[73.952721,15.453055]},"properties":{"Name":"G.P.S.New Building, Kundaim","Principal":"Shailaja S. Mulvi","Mobile":9762662173,"Email":"shailajamulvi123@gmail.com","Capacity":64,"Panchayat":"Kundaim","Type":null,"Building Condition":null,"Used as Shelter":null,"Water Supply":null,"Toilets":null,"Classroom Count":null,"Level":null}},{"type":"Feature","geometry":{"type":"Point","coordinates":[73.968804,15.44672]},"properties":{"Name":"V.D.& S.V. Wagle High School, Mangeshi-Mardol","Principal":"Mrs. Mithasha M. Aigal","Mobile":null,"Email":"waglehighschool@gmail.com","Capacity":1165,"Panchayat":"Veling,Priol,Cuncoliem","Type":null,"Building Condition":null,"Used as Shelter":null,"Water Supply":null,"Toilets":null,"Classroom Count":null,"Level":null}},{"type":"Feature","geometry":{"type":"Point","coordinates":[73.944789,15.420438]},"properties":{"Name":"Shree Navdurga Vidyalaya, Marcaim,","Principal":"Ranjeeta R. Sirsat","Mobile":9923506540,"Email":"ranjeetasirsat@gmail.com","Capacity":140,"Panchayat":"Marcaim","Type":null,"Building Condition":null,"Used as Shelter":null,"Water Supply":null,"Toilets":null,"Classroom Count":null,"Level":null}},{"type":"Feature","geometry":{"type":"Point","coordinates":[73.958943,15.458585]},"properties":{"Name":"Govt. High School, Kundaim, Ponda.","Principal":"Mrs. Swati S. Perni","Mobile":9823553958,"Email":"ghskundai0@gmail.com","Capacity":127,"Panchayat":"Kundaim","Type":null,"Building Condition":null,"Used as Shelter":null,"Water Supply":null,"Toilets":null,"Classroom Count":null,"Level":null}},{"type":"Feature","geometry":{"type":"Point","coordinates":[73.951304,15.43428]},"properties":{"Name":"G.P.S. Mauzo, Kundaim","Principal":"Miss Varsha V. Borkar","Mobile":9823330952,"Email":"varshavborkar@gmail.com","Capacity":25,"Panchayat":"Kundaim","Type":null,"Building Condition":null,"Used as Shelter":null,"Water Supply":null,"Toilets":null,"Classroom Count":null,"Level":null}},{"type":"Feature","geometry":{"type":"Point","coordinates":[73.955612,15.415219]},"properties":{"Name":"Shri Navdurga Edu.& Cult. So. Anandibai Naik H.S. Karanjal","Principal":"Umakant L Naik","Mobile":9673909160,"Email":"nbharat82@gmail.com","Capacity":223,"Panchayat":"Marcaim","Type":null,"Building Condition":null,"Used as Shelter":null,"Water Supply":null,"Toilets":null,"Classroom Count":null,"Level":null}},{"type":"Feature","geometry":{"type":"Point","coordinates":[73.980248,15.438138]},"properties":{"Name":"C.E. Society’s Shiksha Sadan, Priol, Mardol","Principal":"Mrs. Shobha S. Priolkar","Mobile":9765729475,"Email":"priolkar17@gmail.com","Capacity":205,"Panchayat":"Veling,Priol,Cuncoliem","Type":null,"Building Condition":null,"Used as Shelter":null,"Water Supply":null,"Toilets":null,"Classroom Count":null,"Level":null}},{"type":"Feature","geometry":{"type":"Point","coordinates":[73.987961,15.430893]},"properties":{"Name":"S.S.M.’s Swastik Vidyalaya, Priol, Mardol","Principal":"S. V. Amshekar","Mobile":2343610,"Email":"swastikvidyalaya@gmail.com","Capacity":160,"Panchayat":"Veling,Priol,Cuncoliem","Type":null,"Building Condition":null,"Used as Shelter":null,"Water Supply":null,"Toilets":null,"Classroom Count":null,"Level":null}},{"type":"Feature","geometry":{"type":"Point","coordinates":[73.999759,15.437228]},"properties":{"Name":"G.P.S Karmale, Querim","Principal":"Mrs. Pravina D. Rasaikar","Mobile":8888542514,"Email":"rarsaikarpravina@gmail.com","Capacity":14,"Panchayat":"Veling,Priol,Cuncoliem","Type":null,"Building Condition":null,"Used as Shelter":null,"Water Supply":null,"Toilets":null,"Classroom Count":null,"Level":null}},{"type":"Feature","geometry":{"type":"Point","coordinates":[73.972754,15.44221]},"properties":{"Name":"G.P.S. Mardol","Principal":"Mrs. Kirti G. Naik","Mobile":9673108584,"Email":"knaik033@gmail.com","Capacity":24,"Panchayat":"Veling,Priol,Cuncoliem","Type":null,"Building Condition":null,"Used as Shelter":null,"Water Supply":null,"Toilets":null,"Classroom Count":null,"Level":null}},{"type":"Feature","geometry":{"type":"Point","coordinates":[74.10803,15.16741]},"properties":{"Name":"Utkarsha High School, Rivona, Sanguem 403 705.","Principal":"Neha bandari","Mobile":9823694608,"Email":"Utkarshrivona@gmail.com","Capacity":157,"Panchayat":"Rivona","Type":null,"Building Condition":null,"Used as Shelter":null,"Water Supply":null,"Toilets":null,"Classroom Count":null,"Level":null}},{"type":"Feature","geometry":{"type":"Point","coordinates":[74.09702,15.18896]},"properties":{"Name":"Govt. High School, Zambaulim, Rivona, Sanguem","Principal":"Veniza cardozo","Mobile":9049443773,"Email":"ghszambaulim@yahoo.com","Capacity":98,"Panchayat":"Rivona","Type":null,"Building Condition":null,"Used as Shelter":null,"Water Supply":null,"Toilets":null,"Classroom Count":null,"Level":null}},{"type":"Feature","geometry":{"type":"Point","coordinates":[74.11097,15.16265]},"properties":{"Name":"G.P.S. Rivona","Principal":"Amita Rane","Mobile":8766983206,"Email":"raneamita1970@gmail.com","Capacity":28,"Panchayat":"Rivona","Type":null,"Building Condition":null,"Used as Shelter":null,"Water Supply":null,"Toilets":null,"Classroom Count":null,"Level":null}},{"type":"Feature","geometry":{"type":"Point","coordinates":[73.844379,15.475576]},"properties":{"Name":"St.Cruz High School, St. Cruz, Ilhas,","Principal":"J. J. V. Russell Coutinho ( Headmaster)","Mobile":null,"Email":"schs1962@rediffmail.com","Capacity":919,"Panchayat":"St. Cruz","Type":null,"Building Condition":null,"Used as Shelter":null,"Water Supply":null,"Toilets":null,"Classroom Count":null,"Level":null}},{"type":"Feature","geometry":{"type":"Point","coordinates":[73.91405,15.49526]},"properties":{"Name":"Old Goa Educational Institute, Katyebhat, Ella Old Goa","Principal":"Dattaram S shetkar","Mobile":9527436372,"Email":"dsshetkar@gmail.com","Capacity":325,"Panchayat":"Se-Old-Goa","Type":null,"Building Condition":null,"Used as Shelter":null,"Water Supply":null,"Toilets":null,"Classroom Count":null,"Level":null}},{"type":"Feature","geometry":{"type":"Point","coordinates":[73.91405,15.49526]},"properties":{"Name":"Nandanvan Pry School, Katyebhat, Ela, Old Goa","Principal":"Dattaram S Shetkar ","Mobile":9527436372,"Email":"dsshetkar@gmail.com","Capacity":157,"Panchayat":"Se-Old-Goa","Type":null,"Building Condition":null,"Used as Shelter":null,"Water Supply":null,"Toilets":null,"Classroom Count":null,"Level":null}},{"type":"Feature","geometry":{"type":"Point","coordinates":[73.91405,15.49526]},"properties":{"Name":"Vassant V. S. Kukalekar Hr Secondary School, Ela Old Goa","Principal":"Lonna Lotlekar","Mobile":9890219262,"Email":"lonna.dias@rediffmail.com","Capacity":127,"Panchayat":"Se-Old-Goa","Type":null,"Building Condition":null,"Used as Shelter":null,"Water Supply":null,"Toilets":null,"Classroom Count":null,"Level":null}},{"type":"Feature","geometry":{"type":"Point","coordinates":[74.12932,15.14836]},"properties":{"Name":"G.P.S. Colamb","Principal":"Suganda velip","Mobile":9404456451,"Email":"guruvelip12345@gmail.com","Capacity":42,"Panchayat":"Rivona","Type":null,"Building Condition":null,"Used as Shelter":null,"Water Supply":null,"Toilets":null,"Classroom Count":null,"Level":null}},{"type":"Feature","geometry":{"type":"Point","coordinates":[74.13519,15.13814]},"properties":{"Name":"G.P.S. Kevan","Principal":"Yesu Velip","Mobile":9322753093,"Email":"gayatrigaonkar5@gmail.com","Capacity":21,"Panchayat":"Rivona","Type":null,"Building Condition":null,"Used as Shelter":null,"Water Supply":null,"Toilets":null,"Classroom Count":null,"Level":null}},{"type":"Feature","geometry":{"type":"Point","coordinates":[74.21782,15.09537]},"properties":{"Name":"G.P.S. Neturlim","Principal":"Sharmila Gaonkar","Mobile":9423602134,"Email":"gaonkarsharmila95@gmail.com","Capacity":45,"Panchayat":"Neturlim","Type":null,"Building Condition":null,"Used as Shelter":null,"Water Supply":null,"Toilets":null,"Classroom Count":null,"Level":null}},{"type":"Feature","geometry":{"type":"Point","coordinates":[73.90802,15.50024]},"properties":{"Name":"G.P.S. Ella, Old Goa","Principal":"Miss. Roshan Savlo Sawant","Mobile":7798619130,"Email":"roshnsawnt99@gmail.com","Capacity":34,"Panchayat":"Se-Old-Goa","Type":null,"Building Condition":null,"Used as Shelter":null,"Water Supply":null,"Toilets":null,"Classroom Count":null,"Level":null}},{"type":"Feature","geometry":{"type":"Point","coordinates":[74.195,15.10305]},"properties":{"Name":"G.P.S. Vichundrem","Principal":"Ranjana B Desai","Mobile":9404909854,"Email":"ranjanadhond68@gmail.com","Capacity":35,"Panchayat":"Neturlim","Type":null,"Building Condition":null,"Used as Shelter":null,"Water Supply":null,"Toilets":null,"Classroom Count":null,"Level":null}},{"type":"Feature","geometry":{"type":"Point","coordinates":[73.87497,15.48707]},"properties":{"Name":"Jadeed Primary School, Indira Nagar, Chimbel","Principal":"Mr. Fayyaz Ahmed Mulla","Mobile":9423810541,"Email":"jadeedschool@gmail.com","Capacity":205,"Panchayat":"Chimbel","Type":null,"Building Condition":null,"Used as Shelter":null,"Water Supply":null,"Toilets":null,"Classroom Count":null,"Level":null}},{"type":"Feature","geometry":{"type":"Point","coordinates":[74.20959,15.09884]},"properties":{"Name":"Govt. High School, Netorlim, Sanguem. 403 704.","Principal":"Damodar R Gaonkar","Mobile":null,"Email":"ghsnetraulim@yahoo.com","Capacity":259,"Panchayat":"Neturlim","Type":null,"Building Condition":null,"Used as Shelter":null,"Water Supply":null,"Toilets":null,"Classroom Count":null,"Level":null}},{"type":"Feature","geometry":{"type":"Point","coordinates":[73.87497,15.48707]},"properties":{"Name":"Jadeed English High School, Indira Nagar, Chimbel","Principal":"Mr. Fayyaz Ahmed Mulla ","Mobile":9423810541,"Email":"jadeedschool@gmail.com","Capacity":170,"Panchayat":"Chimbel","Type":null,"Building Condition":null,"Used as Shelter":null,"Water Supply":null,"Toilets":null,"Classroom Count":null,"Level":null}},{"type":"Feature","geometry":{"type":"Point","coordinates":[73.87497,15.48707]},"properties":{"Name":"Jadeed Urdu High School, Indira Nagar, Chimbel","Principal":"Mr. Fayyaz Ahmed Mulla ","Mobile":9423810541,"Email":"jadeedschool@gmail.com","Capacity":12,"Panchayat":"Chimbel","Type":null,"Building Condition":null,"Used as Shelter":null,"Water Supply":null,"Toilets":null,"Classroom Count":null,"Level":null}},{"type":"Feature","geometry":{"type":"Point","coordinates":[74.11338,15.19155]},"properties":{"Name":"Govt. High School, Molkornem, P.O. Sanguem,","Principal":"Sindhu Prabhu Dessai","Mobile":null,"Email":"ghsmq-@yahoo.com","Capacity":102,"Panchayat":"Molcornem","Type":null,"Building Condition":null,"Used as Shelter":null,"Water Supply":null,"Toilets":null,"Classroom Count":null,"Level":null}},{"type":"Feature","geometry":{"type":"Point","coordinates":[73.87333,15.49241]},"properties":{"Name":"Husn Mayarh English medium High School, Chimbel","Principal":"Lynn Rodrigues ","Mobile":8446602642,"Email":"husnmayrah@gmail.com","Capacity":101,"Panchayat":"Chimbel","Type":null,"Building Condition":null,"Used as Shelter":null,"Water Supply":null,"Toilets":null,"Classroom Count":null,"Level":null}},{"type":"Feature","geometry":{"type":"Point","coordinates":[73.87333,15.49241]},"properties":{"Name":"Husn Sahara Konkani Primary School, Chimbel","Principal":"Lynn Rodrigues ","Mobile":8446602642,"Email":"saharachimbel@gmail.com","Capacity":167,"Panchayat":"Chimbel","Type":null,"Building Condition":null,"Used as Shelter":null,"Water Supply":null,"Toilets":null,"Classroom Count":null,"Level":null}},{"type":"Feature","geometry":{"type":"Point","coordinates":[74.12601,15.18608]},"properties":{"Name":"G.P.S. Gaonkarwada, Malkarnem","Principal":"Josna Prabhu Dessai","Mobile":9421746968,"Email":"josnaprabhugaonkar@gmail.com","Capacity":46,"Panchayat":"Molcornem","Type":null,"Building Condition":null,"Used as Shelter":null,"Water Supply":null,"Toilets":null,"Classroom Count":null,"Level":null}},{"type":"Feature","geometry":{"type":"Point","coordinates":[74.12752,15.18569]},"properties":{"Name":"G.P.S. Bhindem, Malkarnem","Principal":"Chitra C Gaonkar","Mobile":7588460742,"Email":"chitragaonkar324567@gmail.com","Capacity":15,"Panchayat":"Molcornem","Type":null,"Building Condition":null,"Used as Shelter":null,"Water Supply":null,"Toilets":null,"Classroom Count":null,"Level":null}},{"type":"Feature","geometry":{"type":"Point","coordinates":[73.84882,15.56709]},"properties":{"Name":"Sunshine worldwide Higher Secondary School, Baigainim","Principal":"Ms. Sindu Hemanth","Mobile":9923084795,"Email":"principal@sunshineworldwideschool.in","Capacity":920,"Panchayat":"Pomburpa-Olaulim","Type":null,"Building Condition":null,"Used as Shelter":null,"Water Supply":null,"Toilets":null,"Classroom Count":null,"Level":null}},{"type":"Feature","geometry":{"type":"Point","coordinates":[74.14849,15.10712]},"properties":{"Name":"Don Bosco Farm High School, Sulcorna, Rivona, Quepem","Principal":"Fr. Constantine Fernandes","Mobile":8550995113,"Email":"dbfhssulcorna@gmail.com","Capacity":281,"Panchayat":"Caurem","Type":null,"Building Condition":null,"Used as Shelter":null,"Water Supply":null,"Toilets":null,"Classroom Count":null,"Level":null}},{"type":"Feature","geometry":{"type":"Point","coordinates":[74.09502,15.19408]},"properties":{"Name":"G.P.S. Kumbarwada, Sirvoi","Principal":"Lalita H Bamane","Mobile":7350974063,"Email":"lalitabamne@gmail.com","Capacity":37,"Panchayat":"Quepem","Type":null,"Building Condition":null,"Used as Shelter":null,"Water Supply":null,"Toilets":null,"Classroom Count":null,"Level":null}},{"type":"Feature","geometry":{"type":"Point","coordinates":[73.79394,15.40439]},"properties":{"Name":"Murgaon High School, Headland Sada, Mormugao","Principal":"Shri Tulshidas P. Dessai","Mobile":null,"Email":"mhschool03@rediffmail.com","Capacity":555,"Panchayat":"Mormugao","Type":null,"Building Condition":null,"Used as Shelter":null,"Water Supply":null,"Toilets":null,"Classroom Count":null,"Level":null}},{"type":"Feature","geometry":{"type":"Point","coordinates":[74.08637,15.21516]},"properties":{"Name":"G.P.S. Deumol, Sirvoi","Principal":"Suvas Borkar","Mobile":9881811709,"Email":"suvas.borkar1965@gmail.com","Capacity":18,"Panchayat":"Quepem","Type":null,"Building Condition":null,"Used as Shelter":null,"Water Supply":null,"Toilets":null,"Classroom Count":null,"Level":null}},{"type":"Feature","geometry":{"type":"Point","coordinates":[73.79394,15.40439]},"properties":{"Name":"Murgaon Primary School, Headland Sada, Vasco","Principal":"Shri Tulshidas P. Dessai","Mobile":9823661624,"Email":"mhschool03@rediffmail.com","Capacity":425,"Panchayat":"Mormugao","Type":null,"Building Condition":null,"Used as Shelter":null,"Water Supply":null,"Toilets":null,"Classroom Count":null,"Level":null}},{"type":"Feature","geometry":{"type":"Point","coordinates":[73.79378,15.4062]},"properties":{"Name":"Yuwak Sangh High School, Headland Sada, Vasco-da-Gama","Principal":"Mrs Urmila D. Pawar","Mobile":null,"Email":"yuwaksanghhighschool@gmail.com","Capacity":115,"Panchayat":"Mormugao","Type":null,"Building Condition":null,"Used as Shelter":null,"Water Supply":null,"Toilets":null,"Classroom Count":null,"Level":null}},{"type":"Feature","geometry":{"type":"Point","coordinates":[73.87282,15.49554]},"properties":{"Name":"Union High School, Chimbel, Tiswadi Goa","Principal":"Nirmala Naik","Mobile":9881921017,"Email":"unionhighschool@yahoo.com","Capacity":109,"Panchayat":"Chimbel","Type":null,"Building Condition":null,"Used as Shelter":null,"Water Supply":null,"Toilets":null,"Classroom Count":null,"Level":null}},{"type":"Feature","geometry":{"type":"Point","coordinates":[74.07474,15.21909]},"properties":{"Name":"G.P.S. Katta, Amona","Principal":"Sarojini H Dessai","Mobile":7448169339,"Email":"sarojinidessai52@gmail.com","Capacity":60,"Panchayat":"Quepem","Type":null,"Building Condition":null,"Used as Shelter":null,"Water Supply":null,"Toilets":null,"Classroom Count":null,"Level":null}},{"type":"Feature","geometry":{"type":"Point","coordinates":[73.79378,15.40621]},"properties":{"Name":"Yuwak Sangh Pry School, Sada, Vasco","Principal":"Mrs. Kanchan R. Kudapkar","Mobile":9822872526,"Email":"yuwaksanghhighschool@gmail.com","Capacity":53,"Panchayat":"Mormugao","Type":null,"Building Condition":null,"Used as Shelter":null,"Water Supply":null,"Toilets":null,"Classroom Count":null,"Level":null}},{"type":"Feature","geometry":{"type":"Point","coordinates":[73.87282,15.49554]},"properties":{"Name":"Union Primary School, Chimbel","Principal":"Mahadev S. Salam","Mobile":9405223259,"Email":"unionhighschool@yahoo.in","Capacity":98,"Panchayat":"Chimbel","Type":null,"Building Condition":null,"Used as Shelter":null,"Water Supply":null,"Toilets":null,"Classroom Count":null,"Level":null}},{"type":"Feature","geometry":{"type":"Point","coordinates":[73.79172,15.40671]},"properties":{"Name":"Late Narendra A. Mayekar, Govt. High School,Headland, Sada,","Principal":"Mrs Terza C. Andrade","Mobile":null,"Email":"governmenthighschoolsadasmailbox@rediffmail.com","Capacity":89,"Panchayat":"Mormugao","Type":null,"Building Condition":null,"Used as Shelter":null,"Water Supply":null,"Toilets":null,"Classroom Count":null,"Level":null}},{"type":"Feature","geometry":{"type":"Point","coordinates":[73.79172,15.4067]},"properties":{"Name":"Late Narendra A. Mayekar, Govt. High School,Headland, Sada,","Principal":"Mrs. Suchita S. Gad","Mobile":7020962027,"Email":"suchisanj7@gmail.com","Capacity":72,"Panchayat":"Mormugao","Type":null,"Building Condition":null,"Used as Shelter":null,"Water Supply":null,"Toilets":null,"Classroom Count":null,"Level":null}},{"type":"Feature","geometry":{"type":"Point","coordinates":[73.89066,15.49148]},"properties":{"Name":"The Gera School, Panelim Village , Old Goa","Principal":"Mr.Siddesh Dongrikar","Mobile":9130015739,"Email":"administration@thegeraschool.com","Capacity":392,"Panchayat":"Chimbel","Type":null,"Building Condition":null,"Used as Shelter":null,"Water Supply":null,"Toilets":null,"Classroom Count":null,"Level":null}},{"type":"Feature","geometry":{"type":"Point","coordinates":[73.78548,15.40927]},"properties":{"Name":"Deepvihar Higher Secondary School, Headland Sada, Vasco","Principal":"Shri Mrunal K. Korgaonkar","Mobile":null,"Email":"deepviharhhs46@gmail.com","Capacity":466,"Panchayat":"Mormugao","Type":null,"Building Condition":null,"Used as Shelter":null,"Water Supply":null,"Toilets":null,"Classroom Count":null,"Level":null}},{"type":"Feature","geometry":{"type":"Point","coordinates":[73.79283,15.40935]},"properties":{"Name":"Deepvihar Primary School, Sada, Vasco","Principal":"Mrs. Sharlet Furtado","Mobile":null,"Email":"dvps1980@gmail.com","Capacity":554,"Panchayat":"Mormugao","Type":null,"Building Condition":null,"Used as Shelter":null,"Water Supply":null,"Toilets":null,"Classroom Count":null,"Level":null}},{"type":"Feature","geometry":{"type":"Point","coordinates":[73.78786,15.41107]},"properties":{"Name":"Deepvihar High School, Headland Sada,","Principal":"Mrs. Bina R. shetye","Mobile":null,"Email":"deepvihar85@gmail.com","Capacity":753,"Panchayat":"Mormugao","Type":null,"Building Condition":null,"Used as Shelter":null,"Water Supply":null,"Toilets":null,"Classroom Count":null,"Level":null}},{"type":"Feature","geometry":{"type":"Point","coordinates":[74.22362,15.14766]},"properties":{"Name":"G.P.S. Vadem","Principal":"Kalpesh velip","Mobile":9423141671,"Email":"velipkalpesh622@gmail.com","Capacity":12,"Panchayat":"Bhati","Type":null,"Building Condition":null,"Used as Shelter":null,"Water Supply":null,"Toilets":null,"Classroom Count":null,"Level":null}},{"type":"Feature","geometry":{"type":"Point","coordinates":[74.20674,15.12126]},"properties":{"Name":"G.P.S. Vadem, Col. No.2","Principal":"Dulan panchwadkar","Mobile":9420974487,"Email":"panchwadkarulan@gmail.com","Capacity":24,"Panchayat":"Curdi","Type":null,"Building Condition":null,"Used as Shelter":null,"Water Supply":null,"Toilets":null,"Classroom Count":null,"Level":null}},{"type":"Feature","geometry":{"type":"Point","coordinates":[74.22252,15.09046]},"properties":{"Name":"G.P.S. Bandwada","Principal":"Sangita S. Sawaikar","Mobile":9420161255,"Email":"sangitasavaikar15@gmail.com","Capacity":33,"Panchayat":"Neturlim","Type":null,"Building Condition":null,"Used as Shelter":null,"Water Supply":null,"Toilets":null,"Classroom Count":null,"Level":null}},{"type":"Feature","geometry":{"type":"Point","coordinates":[74.25687,15.0565]},"properties":{"Name":"G.P.S. Tudov","Principal":"Gagesh R. Velip","Mobile":9049690693,"Email":"gageshvelip151@gmail.com","Capacity":13,"Panchayat":"Neturlim","Type":null,"Building Condition":null,"Used as Shelter":null,"Water Supply":null,"Toilets":null,"Classroom Count":null,"Level":null}},{"type":"Feature","geometry":{"type":"Point","coordinates":[74.14693,15.20923]},"properties":{"Name":"G.P.S. Deulamol, Malkarnem","Principal":"Sandhya velip","Mobile":8208619967,"Email":"sandhya.gnkr@gmail.com","Capacity":35,"Panchayat":"Uguem","Type":null,"Building Condition":null,"Used as Shelter":null,"Water Supply":null,"Toilets":null,"Classroom Count":null,"Level":null}},{"type":"Feature","geometry":{"type":"Point","coordinates":[74.144,15.18915]},"properties":{"Name":"G.P.S. Molkopona, Malkarnem","Principal":"Navu kulekar","Mobile":9764242026,"Email":"kulekarnavu@gmail.com","Capacity":23,"Panchayat":"Molcornem","Type":null,"Building Condition":null,"Used as Shelter":null,"Water Supply":null,"Toilets":null,"Classroom Count":null,"Level":null}},{"type":"Feature","geometry":{"type":"Point","coordinates":[74.14657,15.21098]},"properties":{"Name":"G.P.S. Kotharli","Principal":"Sushma naik","Mobile":9822685570,"Email":"dessaisulochana27@gmail.com","Capacity":35,"Panchayat":"Uguem","Type":null,"Building Condition":null,"Used as Shelter":null,"Water Supply":null,"Toilets":null,"Classroom Count":null,"Level":null}},{"type":"Feature","geometry":{"type":"Point","coordinates":[73.963761,15.474736]},"properties":{"Name":"G.P.S. Bhoma","Principal":"Chitra C. Chodankar","Mobile":8830925640,"Email":"g.p.sbhoma12@gmail.com","Capacity":81,"Panchayat":"Bhoma-Adcolna","Type":null,"Building Condition":null,"Used as Shelter":null,"Water Supply":null,"Toilets":null,"Classroom Count":null,"Level":null}},{"type":"Feature","geometry":{"type":"Point","coordinates":[73.959549,15.483191]},"properties":{"Name":"Mahanandu G. Naik Mem. High School, Banastarim, Bhom","Principal":"Mrs. Medha Y Desai","Mobile":8698819577,"Email":"mahananduschool@rediffmail.com","Capacity":221,"Panchayat":"Bhoma-Adcolna","Type":null,"Building Condition":null,"Used as Shelter":null,"Water Supply":null,"Toilets":null,"Classroom Count":null,"Level":null}},{"type":"Feature","geometry":{"type":"Point","coordinates":[73.960045,15.489212]},"properties":{"Name":"G.P.S. Muslimwada, Bhoma","Principal":"Mrs Dipa D. Naique ","Mobile":9423883195,"Email":"dnaik8659@gmail.com","Capacity":72,"Panchayat":"Bhoma-Adcolna","Type":null,"Building Condition":null,"Used as Shelter":null,"Water Supply":null,"Toilets":null,"Classroom Count":null,"Level":null}},{"type":"Feature","geometry":{"type":"Point","coordinates":[73.960412,15.488528]},"properties":{"Name":"G.P.S. Adcolna, Banastari","Principal":"Mrs. Shamali S. Volvoikar","Mobile":9158353091,"Email":"shamalivolvoikar1964@gmail.com","Capacity":75,"Panchayat":"Bhoma-Adcolna","Type":null,"Building Condition":null,"Used as Shelter":null,"Water Supply":null,"Toilets":null,"Classroom Count":null,"Level":null}},{"type":"Feature","geometry":{"type":"Point","coordinates":[73.964381,15.495106]},"properties":{"Name":"G.P.S. Wadi, Tivrem","Principal":"Mrs. Sujata R. Bagi","Mobile":7620128875,"Email":"sujatabagi55@gmail.com","Capacity":19,"Panchayat":"Tivrem-Orgao","Type":null,"Building Condition":null,"Used as Shelter":null,"Water Supply":null,"Toilets":null,"Classroom Count":null,"Level":null}},{"type":"Feature","geometry":{"type":"Point","coordinates":[73.963032,15.502491]},"properties":{"Name":"G.P.S. Tivrem, Marcela","Principal":"Dnyaneshwar S. Naik","Mobile":8788872851,"Email":"dnyaneshnaik082@gmail.com","Capacity":28,"Panchayat":"Tivrem-Orgao","Type":null,"Building Condition":null,"Used as Shelter":null,"Water Supply":null,"Toilets":null,"Classroom Count":null,"Level":null}},{"type":"Feature","geometry":{"type":"Point","coordinates":[73.952698,15.152113]},"properties":{"Name":"G.P.S. Marcela","Principal":"Mrs Manda S Bhagat","Mobile":9921016294,"Email":"mandabhagat1967@gmail.com","Capacity":117,"Panchayat":"Velim","Type":null,"Building Condition":null,"Used as Shelter":null,"Water Supply":null,"Toilets":null,"Classroom Count":null,"Level":null}},{"type":"Feature","geometry":{"type":"Point","coordinates":[73.956607,15.514325]},"properties":{"Name":"Sharda English High School, Marcela,","Principal":"Yoganand P. Nagvenkar","Mobile":9284014644,"Email":"sharadaesh.marcela@gmail.com","Capacity":789,"Panchayat":"Tivrem-Orgao","Type":null,"Building Condition":null,"Used as Shelter":null,"Water Supply":null,"Toilets":null,"Classroom Count":null,"Level":null}},{"type":"Feature","geometry":{"type":"Point","coordinates":[73.956349,15.51406]},"properties":{"Name":"Sharada English Primary School, Marcela.","Principal":"Yoganand P Nagvenkar","Mobile":7823038269,"Email":"sharadaehsmarcela@gmail.com","Capacity":224,"Panchayat":"Tivrem-Orgao","Type":null,"Building Condition":null,"Used as Shelter":null,"Water Supply":null,"Toilets":null,"Classroom Count":null,"Level":null}},{"type":"Feature","geometry":{"type":"Point","coordinates":[73.952451,15.515704]},"properties":{"Name":"G.P.S. Tariwada, Marcela","Principal":"Vimal V. Bhagat","Mobile":8411000142,"Email":"vimalbhagat2904@gmail.com","Capacity":28,"Panchayat":"Tivrem-Orgao","Type":null,"Building Condition":null,"Used as Shelter":null,"Water Supply":null,"Toilets":null,"Classroom Count":null,"Level":null}},{"type":"Feature","geometry":{"type":"Point","coordinates":[73.953366,15.518175]},"properties":{"Name":"G.P.S. Madapai, Marcela","Principal":"Sarita Mashalkar","Mobile":9881810205,"Email":"Saritamashalkar@gmail.com","Capacity":21,"Panchayat":"Tivrem-Orgao","Type":null,"Building Condition":null,"Used as Shelter":null,"Water Supply":null,"Toilets":null,"Classroom Count":null,"Level":null}},{"type":"Feature","geometry":{"type":"Point","coordinates":[73.970698,15.515578]},"properties":{"Name":"Bhumika Day Boarding School, Tivrem, Khandola","Principal":"Mrs. Revati G. Naik","Mobile":9158253141,"Email":"bhumika.dbs@12gmail.com","Capacity":139,"Panchayat":"Betqui, Candola","Type":null,"Building Condition":null,"Used as Shelter":null,"Water Supply":null,"Toilets":null,"Classroom Count":null,"Level":null}},{"type":"Feature","geometry":{"type":"Point","coordinates":[73.957121,15.52171]},"properties":{"Name":"Govt.Higher Secondary School, Khandola, Marcel","Principal":"Smt. Rifa Fatima Fernandes ","Mobile":9763960700,"Email":"ghsskmarcel@gmail.com","Capacity":729,"Panchayat":"Tivrem-Orgao","Type":null,"Building Condition":null,"Used as Shelter":null,"Water Supply":null,"Toilets":null,"Classroom Count":null,"Level":null}},{"type":"Feature","geometry":{"type":"Point","coordinates":[73.87515,15.495]},"properties":{"Name":"G.P.S. St. Barbara, Chimbel","Principal":"Mrs Sapana S Teli","Mobile":7507075869,"Email":"sapanateli2691@gmail.com","Capacity":17,"Panchayat":"Chimbel","Type":null,"Building Condition":null,"Used as Shelter":null,"Water Supply":null,"Toilets":null,"Classroom Count":null,"Level":null}},{"type":"Feature","geometry":{"type":"Point","coordinates":[73.89827,15.42591]},"properties":{"Name":"St. Lawrence Primary School, Agassaim.","Principal":"Ms.Lona Da Silva","Mobile":9850812355,"Email":"stlawrenceagassaim@gmail.com","Capacity":185,"Panchayat":"Sao Lourence(Agassaim)","Type":null,"Building Condition":null,"Used as Shelter":null,"Water Supply":null,"Toilets":null,"Classroom Count":null,"Level":null}},{"type":"Feature","geometry":{"type":"Point","coordinates":[73.89827,15.42591]},"properties":{"Name":"St. Lawrence High School, Agassaim,","Principal":"Ms.Lona Da Silva","Mobile":9850812355,"Email":"stlawrenceagassaim@gmail.com","Capacity":224,"Panchayat":"Sao Lourence(Agassaim)","Type":null,"Building Condition":null,"Used as Shelter":null,"Water Supply":null,"Toilets":null,"Classroom Count":null,"Level":null}},{"type":"Feature","geometry":{"type":"Point","coordinates":[73.89942,15.43375]},"properties":{"Name":"Little Angels Primary School , Agassaim","Principal":"Mrs.Sherryl C Pereira","Mobile":9527804720,"Email":"sherylcvazpereira@gmail.com","Capacity":25,"Panchayat":"Sao Lourence(Agassaim)","Type":null,"Building Condition":null,"Used as Shelter":null,"Water Supply":null,"Toilets":null,"Classroom Count":null,"Level":null}},{"type":"Feature","geometry":{"type":"Point","coordinates":[73.88112,15.44428]},"properties":{"Name":"St. Andrew’s High School, Goa Velha,","Principal":"Ms.Shipra Gracias ","Mobile":7796681961,"Email":"standrewshighschoolgoa.@gmail.com","Capacity":452,"Panchayat":"St. Andre","Type":null,"Building Condition":null,"Used as Shelter":null,"Water Supply":null,"Toilets":null,"Classroom Count":null,"Level":null}},{"type":"Feature","geometry":{"type":"Point","coordinates":[73.88182,15.44411]},"properties":{"Name":"G.P.S. Goa Velha","Principal":"Mrs. Meera Veluskar","Mobile":9922094618,"Email":"meeraveluakar1964@gmail.com","Capacity":37,"Panchayat":"St. Andre","Type":null,"Building Condition":null,"Used as Shelter":null,"Water Supply":null,"Toilets":null,"Classroom Count":null,"Level":null}},{"type":"Feature","geometry":{"type":"Point","coordinates":[73.88031,15.44421]},"properties":{"Name":"Fairyland Primary School, Batim, Tiswadi.","Principal":"Mr. Bryan Pegado","Mobile":9823121616,"Email":"fairyprimary@gmail.com","Capacity":172,"Panchayat":"St. Andre","Type":null,"Building Condition":null,"Used as Shelter":null,"Water Supply":null,"Toilets":null,"Classroom Count":null,"Level":null}},{"type":"Feature","geometry":{"type":"Point","coordinates":[73.89205,15.45381]},"properties":{"Name":"Fairy Land High School, Goa Velha, Tiswadi","Principal":"Ms. Maria Cyena B Pegado","Mobile":9326100376,"Email":"fairygoa@gmail.com","Capacity":191,"Panchayat":"Batim","Type":null,"Building Condition":null,"Used as Shelter":null,"Water Supply":null,"Toilets":null,"Classroom Count":null,"Level":null}},{"type":"Feature","geometry":{"type":"Point","coordinates":[73.88112,15.44474]},"properties":{"Name":"Popular High School, Goa Velha, Tiswadi.","Principal":"Mrs. Vandita Lawande","Mobile":9284369602,"Email":"popularenglishschool@gmail.com","Capacity":124,"Panchayat":"Batim","Type":null,"Building Condition":null,"Used as Shelter":null,"Water Supply":null,"Toilets":null,"Classroom Count":null,"Level":null}},{"type":"Feature","geometry":{"type":"Point","coordinates":[73.90092,15.43692]},"properties":{"Name":"G.P.S. Sulabhat, Agacaim","Principal":"Shreya S Talkar","Mobile":9881239539,"Email":"talkarshreya@gmail.com","Capacity":20,"Panchayat":"Sao Lourence(Agassaim)","Type":null,"Building Condition":null,"Used as Shelter":null,"Water Supply":null,"Toilets":null,"Classroom Count":null,"Level":null}},{"type":"Feature","geometry":{"type":"Point","coordinates":[73.87277,15.48845]},"properties":{"Name":"Govt.High School, Kirlawada, Chimbel.","Principal":"Jyotsna Sarin","Mobile":8308180876,"Email":"ghskirlawadachimbel@gmail.com","Capacity":127,"Panchayat":"Chimbel","Type":null,"Building Condition":null,"Used as Shelter":null,"Water Supply":null,"Toilets":null,"Classroom Count":null,"Level":null}},{"type":"Feature","geometry":{"type":"Point","coordinates":[73.87536,15.4927]},"properties":{"Name":"G.P.S. Kirlawada, Chimbel","Principal":"Neha Rane","Mobile":9765843454,"Email":"ghskirlawadachimbel@gmail.com","Capacity":68,"Panchayat":"Chimbel","Type":null,"Building Condition":null,"Used as Shelter":null,"Water Supply":null,"Toilets":null,"Classroom Count":null,"Level":null}},{"type":"Feature","geometry":{"type":"Point","coordinates":[73.93349,15.48918]},"properties":{"Name":"Smt. Sunandabai Bandodkar High School, Carambolim","Principal":"Mr Subodh Mahale","Mobile":9823918453,"Email":"sbhskarmali@gmail.com","Capacity":174,"Panchayat":"Carambolim","Type":null,"Building Condition":null,"Used as Shelter":null,"Water Supply":null,"Toilets":null,"Classroom Count":null,"Level":null}},{"type":"Feature","geometry":{"type":"Point","coordinates":[73.93403,15.48374]},"properties":{"Name":"Jesus & Mary Sarvajanik High School, Carambolim","Principal":"Sr. Lavita Fernandes","Mobile":9765497253,"Email":"jmsarvajanik@gmail.com","Capacity":325,"Panchayat":"Carambolim","Type":null,"Building Condition":null,"Used as Shelter":null,"Water Supply":null,"Toilets":null,"Classroom Count":null,"Level":null}},{"type":"Feature","geometry":{"type":"Point","coordinates":[73.93444,15.4839]},"properties":{"Name":"Jesus & Mary Sarvajanik Primary School, Carambolim","Principal":"Sr.Lavita Fernandes ","Mobile":9765497253,"Email":"jmsarvajanik@gmail.com","Capacity":281,"Panchayat":"Carambolim","Type":null,"Building Condition":null,"Used as Shelter":null,"Water Supply":null,"Toilets":null,"Classroom Count":null,"Level":null}},{"type":"Feature","geometry":{"type":"Point","coordinates":[73.93323,15.48361]},"properties":{"Name":"G.P.S. Carambolim","Principal":"Deepti D Gauns","Mobile":9421743440,"Email":"nirmalagauns@gmail.com","Capacity":92,"Panchayat":"Carambolim","Type":null,"Building Condition":null,"Used as Shelter":null,"Water Supply":null,"Toilets":null,"Classroom Count":null,"Level":null}},{"type":"Feature","geometry":{"type":"Point","coordinates":[73.93563,15.49791]},"properties":{"Name":"Madkaikar Navchaitanya High School, Corlim, Ilhas,","Principal":"Mrs. Preeti Siddarkar","Mobile":9423810534,"Email":"madkaikarhighschool@yahoo.in","Capacity":590,"Panchayat":"Corlim","Type":null,"Building Condition":null,"Used as Shelter":null,"Water Supply":null,"Toilets":null,"Classroom Count":null,"Level":null}},{"type":"Feature","geometry":{"type":"Point","coordinates":[73.93573,15.49791]},"properties":{"Name":"Madkaikar Trust, K.G. & Primary School, Corlim","Principal":"Mrs Preeti R Siddarkar ","Mobile":9423810534,"Email":"mdkps2010@gmail.com","Capacity":333,"Panchayat":"Corlim","Type":null,"Building Condition":null,"Used as Shelter":null,"Water Supply":null,"Toilets":null,"Classroom Count":null,"Level":null}},{"type":"Feature","geometry":{"type":"Point","coordinates":[73.957135,15.527755]},"properties":{"Name":"G.P.S. Amayawada, Khandola","Principal":"Shital Sandeep Naik","Mobile":9763756575,"Email":"shitalnaiksawal@gmail.com","Capacity":16,"Panchayat":"Betqui, Candola","Type":null,"Building Condition":null,"Used as Shelter":null,"Water Supply":null,"Toilets":null,"Classroom Count":null,"Level":null}},{"type":"Feature","geometry":{"type":"Point","coordinates":[73.965555,15.520882]},"properties":{"Name":"G.P.S. Gaonkarwada, Khandola","Principal":"Rajeshri S Gad","Mobile":8308379945,"Email":"rajeshrinaik01@gmail.com","Capacity":111,"Panchayat":"Betqui, Candola","Type":null,"Building Condition":null,"Used as Shelter":null,"Water Supply":null,"Toilets":null,"Classroom Count":null,"Level":null}},{"type":"Feature","geometry":{"type":"Point","coordinates":[73.963718,15.541353]},"properties":{"Name":"G.P.S. Haldanwada, Khandola","Principal":"Pratibha K Salelkar","Mobile":9075303105,"Email":"pratibha01naik@gmail.com","Capacity":34,"Panchayat":"MDR20, Piligao, Goa 403505, India","Type":null,"Building Condition":null,"Used as Shelter":null,"Water Supply":null,"Toilets":null,"Classroom Count":null,"Level":null}},{"type":"Feature","geometry":{"type":"Point","coordinates":[73.97986,15.513029]},"properties":{"Name":"G.P.S. Wadi, Betqui","Principal":"Ankita M Kundaikar","Mobile":9637068648,"Email":"ankitakundaikar92@gmail.com","Capacity":32,"Panchayat":"Betqui, Candola","Type":null,"Building Condition":null,"Used as Shelter":null,"Water Supply":null,"Toilets":null,"Classroom Count":null,"Level":null}},{"type":"Feature","geometry":{"type":"Point","coordinates":[73.99074,15.506728]},"properties":{"Name":"G.P.S. Betqui","Principal":"Namita  Dattaguru Kambli","Mobile":9420768202,"Email":"namitakambli53@gmail.com","Capacity":22,"Panchayat":"Betqui, Candola","Type":null,"Building Condition":null,"Used as Shelter":null,"Water Supply":null,"Toilets":null,"Classroom Count":null,"Level":null}},{"type":"Feature","geometry":{"type":"Point","coordinates":[73.947922,15.443921]},"properties":{"Name":"G.P.S. Dharjo, Kundaim","Principal":"Mrs Pooja Phadte","Mobile":9764630415,"Email":"poophadte23@gmail.com","Capacity":17,"Panchayat":"Kundaim","Type":null,"Building Condition":null,"Used as Shelter":null,"Water Supply":null,"Toilets":null,"Classroom Count":null,"Level":null}},{"type":"Feature","geometry":{"type":"Point","coordinates":[73.96437,15.515801]},"properties":{"Name":"Lokvishwas Pratisthan's Special School for Mentally Challanged Children, Khandola, Marcela-Goa","Principal":"Mrs Shobha Gawas","Mobile":9420975422,"Email":"shobha7634@gmail.com","Capacity":24,"Panchayat":"Betqui, Candola","Type":null,"Building Condition":null,"Used as Shelter":null,"Water Supply":null,"Toilets":null,"Classroom Count":null,"Level":null}},{"type":"Feature","geometry":{"type":"Point","coordinates":[74.00214,15.40167]},"properties":{"Name":"A.J. De Almeida High School, Ponda","Principal":"Santana Pinheiro e Colaco","Mobile":9527609364,"Email":"almeidahsponda@gmail.com","Capacity":2152,"Panchayat":"Ponda","Type":null,"Building Condition":null,"Used as Shelter":null,"Water Supply":null,"Toilets":null,"Classroom Count":null,"Level":null}},{"type":"Feature","geometry":{"type":"Point","coordinates":[74.00278,15.40115]},"properties":{"Name":"GVM's Utkarsh Vidyamandir, Dada Vaidhya Sankul, P.B. No. 10, Ponda","Principal":"Mrs.Srabonee Thakar","Mobile":7249279231,"Email":"gvmuvm11@gmail.com","Capacity":255,"Panchayat":"Ponda","Type":null,"Building Condition":null,"Used as Shelter":null,"Water Supply":null,"Toilets":null,"Classroom Count":null,"Level":null}},{"type":"Feature","geometry":{"type":"Point","coordinates":[74.00285,15.40109]},"properties":{"Name":"GVM's Adarsh Higher Secondary School, Ponda","Principal":"Avdhut Kamat","Mobile":9049847454,"Email":"gvmsadarshhss2017@gmail.com","Capacity":81,"Panchayat":"Ponda","Type":null,"Building Condition":null,"Used as Shelter":null,"Water Supply":null,"Toilets":null,"Classroom Count":null,"Level":null}},{"type":"Feature","geometry":{"type":"Point","coordinates":[74.00317,15.40085]},"properties":{"Name":"G.V.M.’s K.G./Primary School, Ponda (English)","Principal":"Maria E Pires","Mobile":9765509992,"Email":"gvmsprimary.engmed@gmail.com","Capacity":1431,"Panchayat":"Ponda","Type":null,"Building Condition":null,"Used as Shelter":null,"Water Supply":null,"Toilets":null,"Classroom Count":null,"Level":null}},{"type":"Feature","geometry":{"type":"Point","coordinates":[74.00312,15.40085]},"properties":{"Name":"G.V.M.’s K.G./Primary School, Ponda (Marathi)","Principal":"Shobhana mether","Mobile":9923838550,"Email":"gvmsprimaryengmed@gmail.com","Capacity":335,"Panchayat":"Ponda","Type":null,"Building Condition":null,"Used as Shelter":null,"Water Supply":null,"Toilets":null,"Classroom Count":null,"Level":null}},{"type":"Feature","geometry":{"type":"Point","coordinates":[73.99933,15.39772]},"properties":{"Name":"G.P.S. Khadpaband, Ponda","Principal":"Durga painginkar","Mobile":9049984412,"Email":"riyapaiginkar7@gmail.com","Capacity":24,"Panchayat":"Ponda","Type":null,"Building Condition":null,"Used as Shelter":null,"Water Supply":null,"Toilets":null,"Classroom Count":null,"Level":null}},{"type":"Feature","geometry":{"type":"Point","coordinates":[74.00213,15.38698]},"properties":{"Name":"Smt. Indirabai V. Bhat Dhavalikar High School, Dhavalim","Principal":"Vivek pendse","Mobile":9860716250,"Email":"sssivbdhs@gmail.com","Capacity":533,"Panchayat":"Quela","Type":null,"Building Condition":null,"Used as Shelter":null,"Water Supply":null,"Toilets":null,"Classroom Count":null,"Level":null}},{"type":"Feature","geometry":{"type":"Point","coordinates":[74.00302,15.38584]},"properties":{"Name":"Shri Shantadurga Shikshan Samiti’s Primary School, Dhavalim,","Principal":"Manisha A. Upadhye","Mobile":9545398209,"Email":"manisha27upadhye@gmail.com","Capacity":179,"Panchayat":"Quela","Type":null,"Building Condition":null,"Used as Shelter":null,"Water Supply":null,"Toilets":null,"Classroom Count":null,"Level":null}},{"type":"Feature","geometry":{"type":"Point","coordinates":[74.01394,15.39936]},"properties":{"Name":"G.P.S. Juna Bazar, Ponda","Principal":"Suvidha desai","Mobile":9822194849,"Email":"ghsjunabazar@gmail.com","Capacity":176,"Panchayat":"Ponda","Type":null,"Building Condition":null,"Used as Shelter":null,"Water Supply":null,"Toilets":null,"Classroom Count":null,"Level":null}},{"type":"Feature","geometry":{"type":"Point","coordinates":[74.01392,15.39936]},"properties":{"Name":"G.P.S. Juna Bazar, Ponda","Principal":"Neeta G.Naik","Mobile":8390700122,"Email":"neeta0204pednekar@gmail.com","Capacity":93,"Panchayat":"Ponda","Type":null,"Building Condition":null,"Used as Shelter":null,"Water Supply":null,"Toilets":null,"Classroom Count":null,"Level":null}},{"type":"Feature","geometry":{"type":"Point","coordinates":[74.0273,15.55246]},"properties":{"Name":"G.P.S. Harvalem Lower","Principal":"Swati Kamble","Mobile":9673884602,"Email":"swatipavar85@gmail.com","Capacity":40,"Panchayat":"Sanquelim","Type":null,"Building Condition":null,"Used as Shelter":null,"Water Supply":null,"Toilets":null,"Classroom Count":null,"Level":null}},{"type":"Feature","geometry":{"type":"Point","coordinates":[74.02505,15.39936]},"properties":{"Name":"G.P.S. Padel, Betoda","Principal":"Neeta D. Naik","Mobile":9423813665,"Email":"neetalnaik.72@gmail.com","Capacity":57,"Panchayat":"Curti-Khandepar","Type":null,"Building Condition":null,"Used as Shelter":null,"Water Supply":null,"Toilets":null,"Classroom Count":null,"Level":null}},{"type":"Feature","geometry":{"type":"Point","coordinates":[74.02614,15.38447]},"properties":{"Name":"Jamiya -E-Maqbuliya High School, KGN Nagar, Karaswada , Betoda","Principal":"Asharaf solkar","Mobile":9822130476,"Email":"jamiyaschoolponda@gmail.com","Capacity":136,"Panchayat":"Betora-Nirancal","Type":null,"Building Condition":null,"Used as Shelter":null,"Water Supply":null,"Toilets":null,"Classroom Count":null,"Level":null}},{"type":"Feature","geometry":{"type":"Point","coordinates":[74.02614,15.38444]},"properties":{"Name":"Jamiya - E- Maqbuliya Primary School, KGN Nagar, Dattagad Betoda","Principal":"Asharaf solkar","Mobile":9822130476,"Email":"jamiyaschoolponda@gmail.com","Capacity":106,"Panchayat":"Betora-Nirancal","Type":null,"Building Condition":null,"Used as Shelter":null,"Water Supply":null,"Toilets":null,"Classroom Count":null,"Level":null}},{"type":"Feature","geometry":{"type":"Point","coordinates":[74.02601,15.38448]},"properties":{"Name":"G.P.S. Dattagad, Betoda","Principal":"Mukta T. Naik","Mobile":9823429567,"Email":"naikmukta2014@gmail.com","Capacity":59,"Panchayat":"Betora-Nirancal","Type":null,"Building Condition":null,"Used as Shelter":null,"Water Supply":null,"Toilets":null,"Classroom Count":null,"Level":null}},{"type":"Feature","geometry":{"type":"Point","coordinates":[74.02693,15.38615]},"properties":{"Name":"Husn Maqil English Medium High School, Betoda-Ponda","Principal":"Nazarana Bi","Mobile":7841026106,"Email":"husmaqil.hs.betorda21@gmail.com","Capacity":64,"Panchayat":"Betora-Nirancal","Type":null,"Building Condition":null,"Used as Shelter":null,"Water Supply":null,"Toilets":null,"Classroom Count":null,"Level":null}},{"type":"Feature","geometry":{"type":"Point","coordinates":[74.02505,15.38781]},"properties":{"Name":"Govt. High School, Betoda, Ponda","Principal":"Neeta Naik","Mobile":7972320844,"Email":"ghbethora@gmail.com","Capacity":319,"Panchayat":"Betora-Nirancal","Type":null,"Building Condition":null,"Used as Shelter":null,"Water Supply":null,"Toilets":null,"Classroom Count":null,"Level":null}},{"type":"Feature","geometry":{"type":"Point","coordinates":[74.03015,15.3764]},"properties":{"Name":"G.P.S. Talyewada, Betora","Principal":"Geeta G.Dhargalkar","Mobile":8668523036,"Email":"geetageeta@gmail.com","Capacity":27,"Panchayat":"Betora-Nirancal","Type":null,"Building Condition":null,"Used as Shelter":null,"Water Supply":null,"Toilets":null,"Classroom Count":null,"Level":null}},{"type":"Feature","geometry":{"type":"Point","coordinates":[74.01397,15.39936]},"properties":{"Name":"Govt. High School, Juna Bazar, Ponda.","Principal":"Suvidha desai","Mobile":9822194849,"Email":"ghsjunhabazar@gmail.com","Capacity":176,"Panchayat":"Ponda","Type":null,"Building Condition":null,"Used as Shelter":null,"Water Supply":null,"Toilets":null,"Classroom Count":null,"Level":null}},{"type":"Feature","geometry":{"type":"Point","coordinates":[74.02505,15.38781]},"properties":{"Name":"Sahara Muslim Welfare at KGN Nagar, Kasarwada,Betoda","Principal":"Sapna Prabhu","Mobile":8788706244,"Email":"hskps@gmail.com","Capacity":139,"Panchayat":"Betora-Nirancal","Type":null,"Building Condition":null,"Used as Shelter":null,"Water Supply":null,"Toilets":null,"Classroom Count":null,"Level":null}},{"type":"Feature","geometry":{"type":"Point","coordinates":[73.99496,15.46699]},"properties":{"Name":"G.P.S. Amarkhane, Querim","Principal":"Sarita Ramdas Naik","Mobile":9309544202,"Email":"naiksarita197@gmail.com","Capacity":13,"Panchayat":"Querim","Type":null,"Building Condition":null,"Used as Shelter":null,"Water Supply":null,"Toilets":null,"Classroom Count":null,"Level":null}},{"type":"Feature","geometry":{"type":"Point","coordinates":[73.9997,15.45826]},"properties":{"Name":"G.P.S. Satode, Querim","Principal":"Amita T. Gaude","Mobile":9765224759,"Email":"amitagaude77@gmail.com","Capacity":9,"Panchayat":"Querim","Type":null,"Building Condition":null,"Used as Shelter":null,"Water Supply":null,"Toilets":null,"Classroom Count":null,"Level":null}},{"type":"Feature","geometry":{"type":"Point","coordinates":[73.99794,15.5017]},"properties":{"Name":"G.P.S. Ghano, Savoi -Verem","Principal":"Mrs Swapnali S Volvoikar","Mobile":9422966676,"Email":"swapnalivolvoikar5@gmail.com","Capacity":15,"Panchayat":"Verem,Vaghurme","Type":null,"Building Condition":null,"Used as Shelter":null,"Water Supply":null,"Toilets":null,"Classroom Count":null,"Level":null}},{"type":"Feature","geometry":{"type":"Point","coordinates":[74.00786,15.49012]},"properties":{"Name":"Krishna Raghunath Shetye Savoikar High School, Savoi-Verem","Principal":"Mr. Perpetna Fernandes","Mobile":9822195163,"Email":"krsshs27@yahoo.com","Capacity":292,"Panchayat":"Volvoi","Type":null,"Building Condition":null,"Used as Shelter":null,"Water Supply":null,"Toilets":null,"Classroom Count":null,"Level":null}},{"type":"Feature","geometry":{"type":"Point","coordinates":[73.9358,15.49796]},"properties":{"Name":"Corlim Educational Society's Madkaikar Higher Secondary Schoolof Arts & Science, Corlim, Tiswadi","Principal":"Mrs.Ambuja A Dessai","Mobile":8975477008,"Email":"madkaikar.hss@gmail.com","Capacity":141,"Panchayat":"Corlim","Type":null,"Building Condition":null,"Used as Shelter":null,"Water Supply":null,"Toilets":null,"Classroom Count":null,"Level":null}},{"type":"Feature","geometry":{"type":"Point","coordinates":[73.93803,15.49821]},"properties":{"Name":"G.P.S. Mangado, Corlim","Principal":"Mrs.Chhaya N Naik","Mobile":9765492597,"Email":"chhayagodkar11@gmail.com","Capacity":93,"Panchayat":"Corlim","Type":null,"Building Condition":null,"Used as Shelter":null,"Water Supply":null,"Toilets":null,"Classroom Count":null,"Level":null}},{"type":"Feature","geometry":{"type":"Point","coordinates":[73.94548,15.4942]},"properties":{"Name":"G.P.S. Dhulapi, Corlim","Principal":"Mrs. Geeta L Rane","Mobile":9673817785,"Email":"geeta.rane2708@gmail.com","Capacity":100,"Panchayat":"Corlim","Type":null,"Building Condition":null,"Used as Shelter":null,"Water Supply":null,"Toilets":null,"Classroom Count":null,"Level":null}},{"type":"Feature","geometry":{"type":"Point","coordinates":[73.92872,15.49873]},"properties":{"Name":"G.P.S. Malar, Corlim","Principal":"Sima Gaonkar","Mobile":9923325291,"Email":"simagaonkar79@gmail.com","Capacity":52,"Panchayat":"Corlim","Type":null,"Building Condition":null,"Used as Shelter":null,"Water Supply":null,"Toilets":null,"Classroom Count":null,"Level":null}},{"type":"Feature","geometry":{"type":"Point","coordinates":[73.88358,15.4995]},"properties":{"Name":"G.P.S. St. Pedro","Principal":"Manisha M Naique","Mobile":9403965838,"Email":"manishanaik1970@gmail.com","Capacity":38,"Panchayat":"Chimbel","Type":null,"Building Condition":null,"Used as Shelter":null,"Water Supply":null,"Toilets":null,"Classroom Count":null,"Level":null}},{"type":"Feature","geometry":{"type":"Point","coordinates":[73.86598,15.50324]},"properties":{"Name":"Balbharati Vidyamandir, Ribandar, Tiswadi","Principal":"Mrs.Apolonia Fernandes ","Mobile":9822473510,"Email":"bbrm1962@rediffmail.com","Capacity":627,"Panchayat":"Panaji","Type":null,"Building Condition":null,"Used as Shelter":null,"Water Supply":null,"Toilets":null,"Classroom Count":null,"Level":null}},{"type":"Feature","geometry":{"type":"Point","coordinates":[73.85191,15.47979]},"properties":{"Name":"Merry Angel's Primary School, Merces","Principal":"Margret Patil","Mobile":7020858245,"Email":"margaretpatil@gmail.com","Capacity":66,"Panchayat":"Merces","Type":null,"Building Condition":null,"Used as Shelter":null,"Water Supply":null,"Toilets":null,"Classroom Count":null,"Level":null}},{"type":"Feature","geometry":{"type":"Point","coordinates":[73.87933,15.44477]},"properties":{"Name":"Immaculate Heart of Mary Primary School, Goa Velha, Ilhas","Principal":"Sr.Anita D'silva","Mobile":8975321609,"Email":"ihmhsgoavelha@gmail.com","Capacity":168,"Panchayat":"St. Andre","Type":null,"Building Condition":null,"Used as Shelter":null,"Water Supply":null,"Toilets":null,"Classroom Count":null,"Level":null}},{"type":"Feature","geometry":{"type":"Point","coordinates":[74.04796,15.19204]},"properties":{"Name":"G.P.S. Bamnabhat, Ambaulim","Principal":"Smt Priya Naik","Mobile":9764533052,"Email":"priyanaik2310@gmail.com","Capacity":37,"Panchayat":"Ambaulim","Type":null,"Building Condition":null,"Used as Shelter":null,"Water Supply":null,"Toilets":null,"Classroom Count":null,"Level":null}},{"type":"Feature","geometry":{"type":"Point","coordinates":[74.14583,15.22441]},"properties":{"Name":"G.P.S. Vorcotto","Principal":"Sulochana naik Gaonkar","Mobile":9822685570,"Email":"dessaisulochana27@gmail.com","Capacity":13,"Panchayat":"Sanguem","Type":null,"Building Condition":null,"Used as Shelter":null,"Water Supply":null,"Toilets":null,"Classroom Count":null,"Level":null}},{"type":"Feature","geometry":{"type":"Point","coordinates":[73.87933,15.44477]},"properties":{"Name":"Immaculate Heart of Mary High School, Goa Velha","Principal":"Sr. Anita D'silva ","Mobile":8975321609,"Email":"ihmhsgoavelha@gmail.com","Capacity":352,"Panchayat":"St. Andre","Type":null,"Building Condition":null,"Used as Shelter":null,"Water Supply":null,"Toilets":null,"Classroom Count":null,"Level":null}},{"type":"Feature","geometry":{"type":"Point","coordinates":[74.18498,15.22859]},"properties":{"Name":"G.P.S. Uguem","Principal":"Kanchan pednekar","Mobile":8975337564,"Email":"kanchannaik1964@gmail.com","Capacity":20,"Panchayat":"Uguem","Type":null,"Building Condition":null,"Used as Shelter":null,"Water Supply":null,"Toilets":null,"Classroom Count":null,"Level":null}},{"type":"Feature","geometry":{"type":"Point","coordinates":[73.87272,15.44346]},"properties":{"Name":"Montessori School, Goa Velha, Tiswadi.","Principal":"Marianinha D'souza","Mobile":8767748437,"Email":"montessoriprimaryschoolgu@gmail.com","Capacity":119,"Panchayat":"St. Andre","Type":null,"Building Condition":null,"Used as Shelter":null,"Water Supply":null,"Toilets":null,"Classroom Count":null,"Level":null}},{"type":"Feature","geometry":{"type":"Point","coordinates":[74.18498,15.22859]},"properties":{"Name":"Govt. High School, Valkini, Sanguem. 403 704.","Principal":"Seema Gaonkar ","Mobile":9404435647,"Email":"gseema331@gmail.com","Capacity":111,"Panchayat":"Uguem","Type":null,"Building Condition":null,"Used as Shelter":null,"Water Supply":null,"Toilets":null,"Classroom Count":null,"Level":null}},{"type":"Feature","geometry":{"type":"Point","coordinates":[74.22259,15.20545]},"properties":{"Name":"G.P.S. Valkini, Colony No.3","Principal":"Pranali Gaonkar","Mobile":9405885040,"Email":"pranaligaonkar69@gmail.com","Capacity":18,"Panchayat":"Bhati","Type":null,"Building Condition":null,"Used as Shelter":null,"Water Supply":null,"Toilets":null,"Classroom Count":null,"Level":null}},{"type":"Feature","geometry":{"type":"Point","coordinates":[74.041212,15.428058]},"properties":{"Name":"G.P.S. Zamole, Khandepar","Principal":"Saroja Pandit","Mobile":9822983249,"Email":"sarojapandit6@gmail.com","Capacity":22,"Panchayat":"Curti-Khandepar","Type":null,"Building Condition":null,"Used as Shelter":null,"Water Supply":null,"Toilets":null,"Classroom Count":null,"Level":null}},{"type":"Feature","geometry":{"type":"Point","coordinates":[74.23646,15.19932]},"properties":{"Name":"G.P.S. Kongare","Principal":"Prajwala kolambhar","Mobile":9637086272,"Email":"prajwalakolambkar@gmail.com","Capacity":17,"Panchayat":"Bhati","Type":null,"Building Condition":null,"Used as Shelter":null,"Water Supply":null,"Toilets":null,"Classroom Count":null,"Level":null}},{"type":"Feature","geometry":{"type":"Point","coordinates":[74.14894,15.29068]},"properties":{"Name":"G.P.S. Ambeudak","Principal":"Milan Velip","Mobile":9022771754,"Email":"milanvelip2@gmail.com","Capacity":7,"Panchayat":"Sanvordem(Sanguem)","Type":null,"Building Condition":null,"Used as Shelter":null,"Water Supply":null,"Toilets":null,"Classroom Count":null,"Level":null}},{"type":"Feature","geometry":{"type":"Point","coordinates":[74.16694,15.29438]},"properties":{"Name":"G.P.S. Devnamol","Principal":"Ujwala chawan","Mobile":9673239434,"Email":"ashwinichavan505@gmail.com","Capacity":8,"Panchayat":"Kalay(Kalem)","Type":null,"Building Condition":null,"Used as Shelter":null,"Water Supply":null,"Toilets":null,"Classroom Count":null,"Level":null}},{"type":"Feature","geometry":{"type":"Point","coordinates":[74.18069,15.28549]},"properties":{"Name":"Govt. High School, Kalem, Sanguem. 403 704.","Principal":"Namrata Gaonkar ","Mobile":942197750,"Email":"ghskaley@gmail.com","Capacity":183,"Panchayat":"Kalay(Kalem)","Type":null,"Building Condition":null,"Used as Shelter":null,"Water Supply":null,"Toilets":null,"Classroom Count":null,"Level":null}},{"type":"Feature","geometry":{"type":"Point","coordinates":[74.18436,15.2285]},"properties":{"Name":"G.P.S. Kalay","Principal":"Sanseevani Naik","Mobile":9423059225,"Email":"sanjeevaninaik25@gmail.com","Capacity":77,"Panchayat":"Uguem","Type":null,"Building Condition":null,"Used as Shelter":null,"Water Supply":null,"Toilets":null,"Classroom Count":null,"Level":null}},{"type":"Feature","geometry":{"type":"Point","coordinates":[74.20597,15.30443]},"properties":{"Name":"G.P.S. Pokarmol","Principal":"Samiksha agondekar","Mobile":9021936632,"Email":"samikshaagonkar@gmail.com","Capacity":5,"Panchayat":"Kalay(Kalem)","Type":null,"Building Condition":null,"Used as Shelter":null,"Water Supply":null,"Toilets":null,"Classroom Count":null,"Level":null}},{"type":"Feature","geometry":{"type":"Point","coordinates":[74.18366,15.27472]},"properties":{"Name":"G.P.S. Dudhal","Principal":"Anjani Naik","Mobile":9049017462,"Email":"anjaninaik2017@gmail.com","Capacity":14,"Panchayat":"Kalay(Kalem)","Type":null,"Building Condition":null,"Used as Shelter":null,"Water Supply":null,"Toilets":null,"Classroom Count":null,"Level":null}},{"type":"Feature","geometry":{"type":"Point","coordinates":[73.8867,15.44042]},"properties":{"Name":"G.P.S. Dando, Pilar","Principal":"Swatee E Gauns","Mobile":7020380376,"Email":"swatee_gauns@gmail.com","Capacity":40,"Panchayat":"St. Andre","Type":null,"Building Condition":null,"Used as Shelter":null,"Water Supply":null,"Toilets":null,"Classroom Count":null,"Level":null}},{"type":"Feature","geometry":{"type":"Point","coordinates":[73.91867,15.44303]},"properties":{"Name":"Shree Dayanand Arya High School, Neura,","Principal":"Mr. Madhav K .Kharvy","Mobile":9422740850,"Email":"shridayanandarya@yahoo.co.in","Capacity":235,"Panchayat":"Neura","Type":null,"Building Condition":null,"Used as Shelter":null,"Water Supply":null,"Toilets":null,"Classroom Count":null,"Level":null}},{"type":"Feature","geometry":{"type":"Point","coordinates":[73.91867,15.44303]},"properties":{"Name":"Shri Dayanand Arya Primary School, Neura","Principal":"Mrs. Megha Borkar","Mobile":8380592571,"Email":"shridayanandaryahs@yahoo.co.in","Capacity":150,"Panchayat":"Neura","Type":null,"Building Condition":null,"Used as Shelter":null,"Water Supply":null,"Toilets":null,"Classroom Count":null,"Level":null}},{"type":"Feature","geometry":{"type":"Point","coordinates":[73.92006,15.44473]},"properties":{"Name":"Greenlawn School, Neura, Tiswadi.","Principal":"Aurea R Naronha","Mobile":992330060,"Email":"aureateacher@gmail.com","Capacity":100,"Panchayat":"Neura","Type":null,"Building Condition":null,"Used as Shelter":null,"Water Supply":null,"Toilets":null,"Classroom Count":null,"Level":null}},{"type":"Feature","geometry":{"type":"Point","coordinates":[73.89013,15.43868]},"properties":{"Name":"Fr. Agnel Central School, Pilar (CBSE)","Principal":"Fr.Jacob Shally V","Mobile":77962046610,"Email":"fragnel.pilar@gmail.com","Capacity":736,"Panchayat":"St. Andre","Type":null,"Building Condition":null,"Used as Shelter":null,"Water Supply":null,"Toilets":null,"Classroom Count":null,"Level":null}},{"type":"Feature","geometry":{"type":"Point","coordinates":[74.00246,15.38578]},"properties":{"Name":"Lokvishwas Prathisthan’s Late Meenatai B. Thackre Residential Primary School for Hearing Impaired Children, Dhavali, Ponda-Goa, 403401","Principal":"Vinod satarker","Mobile":7350967735,"Email":"lokpra.goa@gmail.com","Capacity":14,"Panchayat":"Quela","Type":null,"Building Condition":null,"Used as Shelter":null,"Water Supply":null,"Toilets":null,"Classroom Count":null,"Level":null}},{"type":"Feature","geometry":{"type":"Point","coordinates":[74.00326,15.38523]},"properties":{"Name":"Lokvishwas Prathisthan’s Virani-Isani High School for Hearing Impaired children, Dhavali, Ponda –Goa,","Principal":"Vinod satarkar","Mobile":7350967735,"Email":"lokpra.goa@gmail.com","Capacity":42,"Panchayat":"Quela","Type":null,"Building Condition":null,"Used as Shelter":null,"Water Supply":null,"Toilets":null,"Classroom Count":null,"Level":null}},{"type":"Feature","geometry":{"type":"Point","coordinates":[74.00326,15.38523]},"properties":{"Name":"Lokvishwas Pratishthan's Ismail J.I & Nabad I. Virani School & Home for Visually Impaired children, Dhavali","Principal":"Vinod satarkar","Mobile":7350967735,"Email":"lokpra.goa@gmail.com","Capacity":39,"Panchayat":"Quela","Type":null,"Building Condition":null,"Used as Shelter":null,"Water Supply":null,"Toilets":null,"Classroom Count":null,"Level":null}},{"type":"Feature","geometry":{"type":"Point","coordinates":[74.00306,15.17528]},"properties":{"Name":"G.P.S. Madikatta, Cuncolim","Principal":"Aishwary Gawas","Mobile":9607030540,"Email":"yeshdessai28@gmail.com","Capacity":23,"Panchayat":"Cuncolim","Type":null,"Building Condition":null,"Used as Shelter":null,"Water Supply":null,"Toilets":null,"Classroom Count":null,"Level":null}},{"type":"Feature","geometry":{"type":"Point","coordinates":[73.99588,15.38976]},"properties":{"Name":"Lokvishwas Pratishthan's Ismail J.I & Nabad I. Virani School & Home for Visually Impaired children, Dhavali","Principal":"Arvind more","Mobile":9823591889,"Email":"lokpra.goa@gmail.com","Capacity":206,"Panchayat":"Quela","Type":null,"Building Condition":null,"Used as Shelter":null,"Water Supply":null,"Toilets":null,"Classroom Count":null,"Level":null}},{"type":"Feature","geometry":{"type":"Point","coordinates":[74.04534,15.564]},"properties":{"Name":"G.P.S. Harvalem Upper","Principal":"Arpana K. Majik","Mobile":9623532063,"Email":"arpanamajik77@gmail.com","Capacity":47,"Panchayat":"Harvalem","Type":null,"Building Condition":null,"Used as Shelter":null,"Water Supply":null,"Toilets":null,"Classroom Count":null,"Level":null}},{"type":"Feature","geometry":{"type":"Point","coordinates":[73.98039,15.38956]},"properties":{"Name":"G.P.S. Talaulim","Principal":"Geeta G.Naik","Mobile":9307129832,"Email":"geetan799@gmail.com","Capacity":10,"Panchayat":"Talaulim","Type":null,"Building Condition":null,"Used as Shelter":null,"Water Supply":null,"Toilets":null,"Classroom Count":null,"Level":null}},{"type":"Feature","geometry":{"type":"Point","coordinates":[74.02989,15.5534]},"properties":{"Name":"G.P.S. Pratap Nagar, Harvalem","Principal":"Binda V. Gawade","Mobile":8554047318,"Email":"bindagawade10@gmail.com","Capacity":20,"Panchayat":"Sanquelim","Type":null,"Building Condition":null,"Used as Shelter":null,"Water Supply":null,"Toilets":null,"Classroom Count":null,"Level":null}},{"type":"Feature","geometry":{"type":"Point","coordinates":[73.9817,15.38222]},"properties":{"Name":"Lokvishwas Pratishthan's Higher Secondary School, Vocational (H.I.) Dhavli -Ponda","Principal":"Vinod satarkar","Mobile":7350967735,"Email":"lokpra.goa@gmail.com","Capacity":22,"Panchayat":"Talaulim","Type":null,"Building Condition":null,"Used as Shelter":null,"Water Supply":null,"Toilets":null,"Classroom Count":null,"Level":null}},{"type":"Feature","geometry":{"type":"Point","coordinates":[74.03301,15.55628]},"properties":{"Name":"Ganesh Vidyalaya, Harvalem, Sankhali","Principal":"Damodar Malvankar","Mobile":9765599456,"Email":"shriganeshv@yahoo.com","Capacity":146,"Panchayat":"Harvalem","Type":null,"Building Condition":null,"Used as Shelter":null,"Water Supply":null,"Toilets":null,"Classroom Count":null,"Level":null}},{"type":"Feature","geometry":{"type":"Point","coordinates":[73.98169,15.38223]},"properties":{"Name":"Shree Mahalaxmi Primary School, Talauli, Ponda","Principal":"Sunanda vasta","Mobile":9373461128,"Email":"smehs06.19@gmail.com","Capacity":134,"Panchayat":"Talaulim","Type":null,"Building Condition":null,"Used as Shelter":null,"Water Supply":null,"Toilets":null,"Classroom Count":null,"Level":null}},{"type":"Feature","geometry":{"type":"Point","coordinates":[74.013224,15.368204]},"properties":{"Name":"G.P.S. Deulwada, Borim","Principal":"Bhavana G. Govekar","Mobile":9764705078,"Email":"bhavanagovekar83@gmail.com","Capacity":28,"Panchayat":"Borim","Type":null,"Building Condition":null,"Used as Shelter":null,"Water Supply":null,"Toilets":null,"Classroom Count":null,"Level":null}},{"type":"Feature","geometry":{"type":"Point","coordinates":[74.002229,15.359107]},"properties":{"Name":"G.P.S. Khazordem, Borim","Principal":"Milan V Naik","Mobile":9049350372,"Email":"smrutisulakar@gmail.com","Capacity":8,"Panchayat":"Borim","Type":null,"Building Condition":null,"Used as Shelter":null,"Water Supply":null,"Toilets":null,"Classroom Count":null,"Level":null}},{"type":"Feature","geometry":{"type":"Point","coordinates":[73.98169,15.38223]},"properties":{"Name":"Shree Mahalakshmi English High School, Talaulim,Ponda","Principal":"Sunanda vasta","Mobile":9373461123,"Email":"smehs06.19@gmail.com","Capacity":210,"Panchayat":"Talaulim","Type":null,"Building Condition":null,"Used as Shelter":null,"Water Supply":null,"Toilets":null,"Classroom Count":null,"Level":null}},{"type":"Feature","geometry":{"type":"Point","coordinates":[73.987797,15.365406]},"properties":{"Name":"G.P.S. Tamshire, Borim","Principal":"Bharati P. Pednekar","Mobile":8788930868,"Email":"shirokaravi@gmail.com","Capacity":44,"Panchayat":"Borim","Type":null,"Building Condition":null,"Used as Shelter":null,"Water Supply":null,"Toilets":null,"Classroom Count":null,"Level":null}},{"type":"Feature","geometry":{"type":"Point","coordinates":[73.98808,15.39239]},"properties":{"Name":"Shri Saraswati Higher Secondary School, Kavalem","Principal":"Sarita K.Parab","Mobile":9822130598,"Email":"shreesaraswati44@gmail.com","Capacity":191,"Panchayat":"Quela","Type":null,"Building Condition":null,"Used as Shelter":null,"Water Supply":null,"Toilets":null,"Classroom Count":null,"Level":null}},{"type":"Feature","geometry":{"type":"Point","coordinates":[73.98832,15.39256]},"properties":{"Name":"Shree Saraswati High School, Kavlem,","Principal":"Sudesh parodkar","Mobile":8788470391,"Email":"sshs.1943@rediffmail.com","Capacity":306,"Panchayat":"Quela","Type":null,"Building Condition":null,"Used as Shelter":null,"Water Supply":null,"Toilets":null,"Classroom Count":null,"Level":null}},{"type":"Feature","geometry":{"type":"Point","coordinates":[73.98831,15.39256]},"properties":{"Name":"Shree Saraswati Primary School, Kavlem,","Principal":"Madhavi kapileshwarkar","Mobile":9921876655,"Email":"madhavikapileshwarkar@gmail.com","Capacity":171,"Panchayat":"Quela","Type":null,"Building Condition":null,"Used as Shelter":null,"Water Supply":null,"Toilets":null,"Classroom Count":null,"Level":null}},{"type":"Feature","geometry":{"type":"Point","coordinates":[73.98556,15.39387]},"properties":{"Name":"Lokmanya Tilak Vidyalaya High School, Kavalem","Principal":"Madhavi M.Naik","Mobile":null,"Email":"loktilkhs@gmail.com","Capacity":240,"Panchayat":"Quela","Type":null,"Building Condition":null,"Used as Shelter":null,"Water Supply":null,"Toilets":null,"Classroom Count":null,"Level":null}},{"type":"Feature","geometry":{"type":"Point","coordinates":[74.01375,15.18187]},"properties":{"Name":"G.P.S. Takaband, Cuncolim","Principal":"Swapna S Naik","Mobile":9834117250,"Email":"swapnanaiktubki@gmail.com","Capacity":26,"Panchayat":"Cuncolim","Type":null,"Building Condition":null,"Used as Shelter":null,"Water Supply":null,"Toilets":null,"Classroom Count":null,"Level":null}},{"type":"Feature","geometry":{"type":"Point","coordinates":[73.98533,15.39385]},"properties":{"Name":"Shantadurga Shikshan Samiti's Hr.Secondary School, Kavlem","Principal":"Vijayandand Nageshker","Mobile":8767143306,"Email":"ssshssk@gmail.com","Capacity":303,"Panchayat":"Quela","Type":null,"Building Condition":null,"Used as Shelter":null,"Water Supply":null,"Toilets":null,"Classroom Count":null,"Level":null}},{"type":"Feature","geometry":{"type":"Point","coordinates":[74.00945,15.19271]},"properties":{"Name":"G.P.S. Sanvorcatta No.1","Principal":"Purva Godkar","Mobile":9923355830,"Email":"godkarpurva80@gmail.com","Capacity":21,"Panchayat":"Cuncolim","Type":null,"Building Condition":null,"Used as Shelter":null,"Water Supply":null,"Toilets":null,"Classroom Count":null,"Level":null}},{"type":"Feature","geometry":{"type":"Point","coordinates":[74.00901,15.19279]},"properties":{"Name":"St. Anthony Primary School, Veroda, Cuncolim","Principal":"Dorothy Fernnandes","Mobile":9822584641,"Email":"stanthonys_h@yahoo.in","Capacity":126,"Panchayat":"Cuncolim","Type":null,"Building Condition":null,"Used as Shelter":null,"Water Supply":null,"Toilets":null,"Classroom Count":null,"Level":null}},{"type":"Feature","geometry":{"type":"Point","coordinates":[73.95982,15.27295]},"properties":{"Name":"Holy Spirit Institute, Margao 403 601.","Principal":"Mrs. Esmeralda Mendes Fernandes","Mobile":9822428053,"Email":"hsimarg62@gmail.com","Capacity":727,"Panchayat":"Margao","Type":null,"Building Condition":null,"Used as Shelter":null,"Water Supply":null,"Toilets":null,"Classroom Count":null,"Level":null}},{"type":"Feature","geometry":{"type":"Point","coordinates":[74.16763,15.27128]},"properties":{"Name":"G.P.S. Costi Kalay","Principal":"Sulaksha p Dessai","Mobile":9922647438,"Email":"sulakshadessai1968@gmail.com","Capacity":10,"Panchayat":"Kalay(Kalem)","Type":null,"Building Condition":null,"Used as Shelter":null,"Water Supply":null,"Toilets":null,"Classroom Count":null,"Level":null}},{"type":"Feature","geometry":{"type":"Point","coordinates":[74.17021,15.24897]},"properties":{"Name":"G.P.S. Castimol, Kalay","Principal":"Sneha S. Gaonkar","Mobile":9049798575,"Email":"snehagaonkar48@gmail.com","Capacity":6,"Panchayat":"Kalay(Kalem)","Type":null,"Building Condition":null,"Used as Shelter":null,"Water Supply":null,"Toilets":null,"Classroom Count":null,"Level":null}},{"type":"Feature","geometry":{"type":"Point","coordinates":[74.15444,15.23194]},"properties":{"Name":"G.P.S. Nondurlem","Principal":"Amita Dessai","Mobile":9049017267,"Email":"amita751986@gmail.com","Capacity":6,"Panchayat":"Sanguem","Type":null,"Building Condition":null,"Used as Shelter":null,"Water Supply":null,"Toilets":null,"Classroom Count":null,"Level":null}},{"type":"Feature","geometry":{"type":"Point","coordinates":[74.14473,15.22717]},"properties":{"Name":"G.P.S. Dando","Principal":"Chandrakala Naik","Mobile":91688430250,"Email":"Naikchandrakala67@gmail.com","Capacity":18,"Panchayat":"Sanguem","Type":null,"Building Condition":null,"Used as Shelter":null,"Water Supply":null,"Toilets":null,"Classroom Count":null,"Level":null}},{"type":"Feature","geometry":{"type":"Point","coordinates":[74.152,15.22778]},"properties":{"Name":"G.P.S. Sanguem","Principal":"Achut Naik","Mobile":9822480512,"Email":"gpskendrasanguemgoa@gmail.com","Capacity":127,"Panchayat":"Sanguem","Type":null,"Building Condition":null,"Used as Shelter":null,"Water Supply":null,"Toilets":null,"Classroom Count":null,"Level":null}},{"type":"Feature","geometry":{"type":"Point","coordinates":[74.15146,15.22929]},"properties":{"Name":"Union High School, Sanguem 403 704.","Principal":"Mamta Naik","Mobile":8322994347,"Email":"uhs_sanguem@yahoo.com","Capacity":617,"Panchayat":"Sanguem","Type":null,"Building Condition":null,"Used as Shelter":null,"Water Supply":null,"Toilets":null,"Classroom Count":null,"Level":null}},{"type":"Feature","geometry":{"type":"Point","coordinates":[74.15225,15.22817]},"properties":{"Name":"G.P.S. Taripanta","Principal":"Prashila naik","Mobile":8668490503,"Email":"prashila2707@gmail.com","Capacity":12,"Panchayat":"Sanguem","Type":null,"Building Condition":null,"Used as Shelter":null,"Water Supply":null,"Toilets":null,"Classroom Count":null,"Level":null}},{"type":"Feature","geometry":{"type":"Point","coordinates":[74.13886,15.24804]},"properties":{"Name":"G.P.S. Mugoli","Principal":"Sonia patekar","Mobile":8080991819,"Email":"soniapatekar11@gmail.com","Capacity":25,"Panchayat":"Uguem","Type":null,"Building Condition":null,"Used as Shelter":null,"Water Supply":null,"Toilets":null,"Classroom Count":null,"Level":null}},{"type":"Feature","geometry":{"type":"Point","coordinates":[74.19867,15.24915]},"properties":{"Name":"G.P.S. Maulinguem, Sanguem","Principal":"Seema Dessai ","Mobile":9923729391,"Email":"gpsmaulinguem@gmail.com","Capacity":3,"Panchayat":"Uguem","Type":null,"Building Condition":null,"Used as Shelter":null,"Water Supply":null,"Toilets":null,"Classroom Count":null,"Level":null}},{"type":"Feature","geometry":{"type":"Point","coordinates":[74.2047,15.25249]},"properties":{"Name":"G.P.S. Pansamol","Principal":"Rekha Velip","Mobile":9834966188,"Email":"rekhavelip34@gmail.com","Capacity":19,"Panchayat":"Uguem","Type":null,"Building Condition":null,"Used as Shelter":null,"Water Supply":null,"Toilets":null,"Classroom Count":null,"Level":null}},{"type":"Feature","geometry":{"type":"Point","coordinates":[74.1851,15.22901]},"properties":{"Name":"Our Lady of Piety Primary School, Uguem, Sanguem. 403 704.","Principal":"Fr. Greg A. Fernandes","Mobile":8308168717,"Email":"ourladyprimaryschool1243@gmail.com","Capacity":53,"Panchayat":"Uguem","Type":null,"Building Condition":null,"Used as Shelter":null,"Water Supply":null,"Toilets":null,"Classroom Count":null,"Level":null}},{"type":"Feature","geometry":{"type":"Point","coordinates":[74.16858,15.22322]},"properties":{"Name":"G.P.S. Saudimol, Uguem","Principal":"Veena vaghormekar","Mobile":9923895586,"Email":"vinavaghurmekar@gmail.com","Capacity":18,"Panchayat":"Uguem","Type":null,"Building Condition":null,"Used as Shelter":null,"Water Supply":null,"Toilets":null,"Classroom Count":null,"Level":null}},{"type":"Feature","geometry":{"type":"Point","coordinates":[74.15906,15.22453]},"properties":{"Name":"Miracles High School, Sanguem 403 704.","Principal":"Filastro cardozo","Mobile":9405040209,"Email":"miraclehighschoolkharkateasanguem@gmail.com","Capacity":332,"Panchayat":"Sanguem","Type":null,"Building Condition":null,"Used as Shelter":null,"Water Supply":null,"Toilets":null,"Classroom Count":null,"Level":null}},{"type":"Feature","geometry":{"type":"Point","coordinates":[74.15906,15.22453]},"properties":{"Name":"Our Lady of Miracles Pry. School, Sanguem.","Principal":"Filastro cardozo","Mobile":9405040209,"Email":"miraclehighschoolsanguem@gmail.com","Capacity":236,"Panchayat":"Sanguem","Type":null,"Building Condition":null,"Used as Shelter":null,"Water Supply":null,"Toilets":null,"Classroom Count":null,"Level":null}},{"type":"Feature","geometry":{"type":"Point","coordinates":[74.15537,15.22865]},"properties":{"Name":"Govt.Higher Secondary School, Sanguem- Goa","Principal":"Sairaj Dessai","Mobile":9850785115,"Email":"ghsssanguem@gmail.com","Capacity":363,"Panchayat":"Sanguem","Type":null,"Building Condition":null,"Used as Shelter":null,"Water Supply":null,"Toilets":null,"Classroom Count":null,"Level":null}},{"type":"Feature","geometry":{"type":"Point","coordinates":[74.11404,15.23855]},"properties":{"Name":"G.P.S. Ghadiwada, Kakoda","Principal":"Meera T Naik","Mobile":7507369309,"Email":"naikmeera44@gmail.com","Capacity":60,"Panchayat":"Curchorem Cacora","Type":null,"Building Condition":null,"Used as Shelter":null,"Water Supply":null,"Toilets":null,"Classroom Count":null,"Level":null}},{"type":"Feature","geometry":{"type":"Point","coordinates":[74.14115,15.2432]},"properties":{"Name":"G.P.S. Soliyem, Kakoda","Principal":"Anita Borkar","Mobile":9673172208,"Email":"anitanaik8118@gmail.com","Capacity":11,"Panchayat":"Curchorem Cacora","Type":null,"Building Condition":null,"Used as Shelter":null,"Water Supply":null,"Toilets":null,"Classroom Count":null,"Level":null}},{"type":"Feature","geometry":{"type":"Point","coordinates":[74.10546,15.24883]},"properties":{"Name":"G.P.S. Kakoda (Main)","Principal":"Shanta vast ","Mobile":9823264959,"Email":"shantavast@gmail.com","Capacity":28,"Panchayat":"Curchorem Cacora","Type":null,"Building Condition":null,"Used as Shelter":null,"Water Supply":null,"Toilets":null,"Classroom Count":null,"Level":null}},{"type":"Feature","geometry":{"type":"Point","coordinates":[74.10804,15.25043]},"properties":{"Name":"Our Lady of Perpetual Succour Convent High School, Kakoda, Quepem","Principal":"Sis. Sevika Marvi","Mobile":91671036032,"Email":"olopses87@gmail.com","Capacity":496,"Panchayat":"Curchorem Cacora","Type":null,"Building Condition":null,"Used as Shelter":null,"Water Supply":null,"Toilets":null,"Classroom Count":null,"Level":null}},{"type":"Feature","geometry":{"type":"Point","coordinates":[74.10803,15.25043]},"properties":{"Name":"Our Lady of Perpetual Succour Convent Pry.School, Kakoda","Principal":"Sis Sarika Borken","Mobile":7385163922,"Email":"oloses87@gmail.com","Capacity":206,"Panchayat":"Curchorem Cacora","Type":null,"Building Condition":null,"Used as Shelter":null,"Water Supply":null,"Toilets":null,"Classroom Count":null,"Level":null}},{"type":"Feature","geometry":{"type":"Point","coordinates":[74.23072,15.15862]},"properties":{"Name":"G.P.S. Vadem, Col. No.1","Principal":"Rohidas Gaonkar ","Mobile":9420164489,"Email":"rohidasgaunkar677@gmail.com","Capacity":77,"Panchayat":"Bhati","Type":null,"Building Condition":null,"Used as Shelter":null,"Water Supply":null,"Toilets":null,"Classroom Count":null,"Level":null}},{"type":"Feature","geometry":{"type":"Point","coordinates":[74.20791,15.12686]},"properties":{"Name":"Govt. High School, Vadem, Kurdi Sanguem. 403 704.","Principal":"Sujata Gaonkar","Mobile":9404864792,"Email":"hmghsvksan@gmail.com","Capacity":237,"Panchayat":"Curdi","Type":null,"Building Condition":null,"Used as Shelter":null,"Water Supply":null,"Toilets":null,"Classroom Count":null,"Level":null}},{"type":"Feature","geometry":{"type":"Point","coordinates":[74.10997,15.27182]},"properties":{"Name":"Shree Sharda English High School, Sanvordem, Sanguem","Principal":"Sonali Tilve","Mobile":9764863585,"Email":"shreeshardaenglish@gmail.com","Capacity":200,"Panchayat":"Sanvordem(Sanguem)","Type":null,"Building Condition":null,"Used as Shelter":null,"Water Supply":null,"Toilets":null,"Classroom Count":null,"Level":null}},{"type":"Feature","geometry":{"type":"Point","coordinates":[74.12014,15.27083]},"properties":{"Name":"G.P.S. Dhade","Principal":"Bhavana K Dessai","Mobile":9765958421,"Email":"bhavanagausdessai@gmail.com","Capacity":27,"Panchayat":"Sanvordem(Sanguem)","Type":null,"Building Condition":null,"Used as Shelter":null,"Water Supply":null,"Toilets":null,"Classroom Count":null,"Level":null}},{"type":"Feature","geometry":{"type":"Point","coordinates":[74.15941,15.2836]},"properties":{"Name":"G.P.S. Guddamol","Principal":"Nanda K Naik","Mobile":9923268735,"Email":"nandanaik02@gmail.com","Capacity":17,"Panchayat":"Sanvordem(Sanguem)","Type":null,"Building Condition":null,"Used as Shelter":null,"Water Supply":null,"Toilets":null,"Classroom Count":null,"Level":null}},{"type":"Feature","geometry":{"type":"Point","coordinates":[74.003409,15.366484]},"properties":{"Name":"G.P.S. Paniwada, Borim","Principal":"Mrs Seema Vallabh. Borkar","Mobile":9420687260,"Email":"svbotkar1964@gmail.com","Capacity":15,"Panchayat":"Borim","Type":null,"Building Condition":null,"Used as Shelter":null,"Water Supply":null,"Toilets":null,"Classroom Count":null,"Level":null}},{"type":"Feature","geometry":{"type":"Point","coordinates":[73.999247,15.387544]},"properties":{"Name":"G.P.S. Khalchawada, Dhavali","Principal":"Madhuri V. Upadhye","Mobile":9850482371,"Email":"madhurivu@gmail.com","Capacity":6,"Panchayat":"Quela","Type":null,"Building Condition":null,"Used as Shelter":null,"Water Supply":null,"Toilets":null,"Classroom Count":null,"Level":null}},{"type":"Feature","geometry":{"type":"Point","coordinates":[73.994412,15.389587]},"properties":{"Name":"G.P.S. Kapileshwari","Principal":"Trupti S Naik","Mobile":9421155432,"Email":"truptipkerkar@gmail.com","Capacity":13,"Panchayat":"Quela","Type":null,"Building Condition":null,"Used as Shelter":null,"Water Supply":null,"Toilets":null,"Classroom Count":null,"Level":null}},{"type":"Feature","geometry":{"type":"Point","coordinates":[73.93429,15.32896]},"properties":{"Name":"Fr. Agnel Multipurpose High School, Verna, Salcete 403 722.","Principal":"Mr.Conrad C.Mendes","Mobile":9822121203,"Email":"agnelmhighschool@gmail.com","Capacity":808,"Panchayat":"Verna","Type":null,"Building Condition":null,"Used as Shelter":null,"Water Supply":null,"Toilets":null,"Classroom Count":null,"Level":null}},{"type":"Feature","geometry":{"type":"Point","coordinates":[73.93396,15.32789]},"properties":{"Name":"Father Agnel Multipurpose Primary School, Verna","Principal":"Mr.Conrad C.Mendes","Mobile":9822121203,"Email":"agnelmprischool@gmail.com","Capacity":359,"Panchayat":"Verna","Type":null,"Building Condition":null,"Used as Shelter":null,"Water Supply":null,"Toilets":null,"Classroom Count":null,"Level":null}},{"type":"Feature","geometry":{"type":"Point","coordinates":[73.81728,15.53638]},"properties":{"Name":"Chubby Cheeks Spring Valley High School, Green Valley, Alto-Porvorim","Principal":"Mrs. Selena D'Souza e Po","Mobile":7774037435,"Email":"chubbycheeksspring@gmail.com","Capacity":1120,"Panchayat":"Pilerne","Type":null,"Building Condition":null,"Used as Shelter":null,"Water Supply":null,"Toilets":null,"Classroom Count":null,"Level":null}},{"type":"Feature","geometry":{"type":"Point","coordinates":[73.98502,15.40272]},"properties":{"Name":"G.P.S. Kurpas, Bandora","Principal":"Manuja M.Naik","Mobile":9420685844,"Email":"naikmanuja14@gmail.com","Capacity":22,"Panchayat":"Bandora","Type":null,"Building Condition":null,"Used as Shelter":null,"Water Supply":null,"Toilets":null,"Classroom Count":null,"Level":null}},{"type":"Feature","geometry":{"type":"Point","coordinates":[73.9612,15.40952]},"properties":{"Name":"G.P.S. Varad, Bandora","Principal":"Sushma Kiran verekar","Mobile":9850693108,"Email":"verekar.sushma@gmail.com","Capacity":14,"Panchayat":"Bandora","Type":null,"Building Condition":null,"Used as Shelter":null,"Water Supply":null,"Toilets":null,"Classroom Count":null,"Level":null}},{"type":"Feature","geometry":{"type":"Point","coordinates":[73.79132,15.54054]},"properties":{"Name":"Lourdes Convent Primary School, Saligao. 403 511","Principal":"Sister Angeline Fernandes ","Mobile":7875056243,"Email":"lourdesconventprimary@rediffmail.com","Capacity":408,"Panchayat":"Saligao","Type":null,"Building Condition":null,"Used as Shelter":null,"Water Supply":null,"Toilets":null,"Classroom Count":null,"Level":null}},{"type":"Feature","geometry":{"type":"Point","coordinates":[73.9668,15.41535]},"properties":{"Name":"Mahatma Gandhi Centenary School, Gaunem, Bandora","Principal":"Anagha kulkarni","Mobile":9356684663,"Email":"mgc.gaune@gmail.com","Capacity":120,"Panchayat":"Bandora","Type":null,"Building Condition":null,"Used as Shelter":null,"Water Supply":null,"Toilets":null,"Classroom Count":null,"Level":null}},{"type":"Feature","geometry":{"type":"Point","coordinates":[73.93093,15.34841]},"properties":{"Name":"Marina English Primary School, Verna.","Principal":"Sr.Thercy J.Menezes","Mobile":9613883056,"Email":"mepsverna@gmail.com","Capacity":284,"Panchayat":"Verna","Type":null,"Building Condition":null,"Used as Shelter":null,"Water Supply":null,"Toilets":null,"Classroom Count":null,"Level":null}},{"type":"Feature","geometry":{"type":"Point","coordinates":[73.96262,15.41979]},"properties":{"Name":"G.P.S. Gaunem, No. 1, Bandora","Principal":"Warsha dessai","Mobile":9823418833,"Email":"warshadessai1506@gmail.com","Capacity":9,"Panchayat":"Bandora","Type":null,"Building Condition":null,"Used as Shelter":null,"Water Supply":null,"Toilets":null,"Classroom Count":null,"Level":null}},{"type":"Feature","geometry":{"type":"Point","coordinates":[73.93096,15.35842]},"properties":{"Name":"Marina English High School, Verna, Salcete","Principal":"Mrs.Rozallia Eveletane C.Fernandes e Antao","Mobile":9822140747,"Email":"mehs_verna@rediffmail.com","Capacity":491,"Panchayat":"Verna","Type":null,"Building Condition":null,"Used as Shelter":null,"Water Supply":null,"Toilets":null,"Classroom Count":null,"Level":null}},{"type":"Feature","geometry":{"type":"Point","coordinates":[73.96495,15.41892]},"properties":{"Name":"G.P.S. Gaunem,No.2, Bandora","Principal":"Suman tari","Mobile":9420897816,"Email":"sumanphadte18@gmail.com","Capacity":16,"Panchayat":"Bandora","Type":null,"Building Condition":null,"Used as Shelter":null,"Water Supply":null,"Toilets":null,"Classroom Count":null,"Level":null}},{"type":"Feature","geometry":{"type":"Point","coordinates":[73.96325,15.41905]},"properties":{"Name":"G.P.S. Khajanwada, Veling","Principal":"Reema salgaonkar","Mobile":7769964672,"Email":"haldonkarreema918@gmail.com","Capacity":15,"Panchayat":"Bandora","Type":null,"Building Condition":null,"Used as Shelter":null,"Water Supply":null,"Toilets":null,"Classroom Count":null,"Level":null}},{"type":"Feature","geometry":{"type":"Point","coordinates":[73.76554,15.53856]},"properties":{"Name":"Little Flower of Jesus High School, Calangute","Principal":"Sister Ernestine Fernandes","Mobile":7798411767,"Email":"lfjhs@rediffmail.com","Capacity":849,"Panchayat":"Calangute","Type":null,"Building Condition":null,"Used as Shelter":null,"Water Supply":null,"Toilets":null,"Classroom Count":null,"Level":null}},{"type":"Feature","geometry":{"type":"Point","coordinates":[73.97182,15.43282]},"properties":{"Name":"G.P.S. Veling","Principal":"Lalita  halbe","Mobile":9420897645,"Email":"lalitakhedekar190@gmail.com","Capacity":33,"Panchayat":"Veling,Priol,Cuncoliem","Type":null,"Building Condition":null,"Used as Shelter":null,"Water Supply":null,"Toilets":null,"Classroom Count":null,"Level":null}},{"type":"Feature","geometry":{"type":"Point","coordinates":[73.92499,15.35959]},"properties":{"Name":"St. Joseph Convent High School, Nagoa Verna","Principal":"Sv.Clarinda Gonsalves","Mobile":9158950141,"Email":"stjosephnagoaverna@rediffmail.com","Capacity":290,"Panchayat":"Nagoa","Type":null,"Building Condition":null,"Used as Shelter":null,"Water Supply":null,"Toilets":null,"Classroom Count":null,"Level":null}},{"type":"Feature","geometry":{"type":"Point","coordinates":[73.92499,15.35959]},"properties":{"Name":"St. Joseph Convent Primary School, Nagoa,","Principal":"Sv.Clarina Gonsalves","Mobile":9158950141,"Email":"stjosephnagoaverna@rediffmail.com","Capacity":137,"Panchayat":"Nagoa","Type":null,"Building Condition":null,"Used as Shelter":null,"Water Supply":null,"Toilets":null,"Classroom Count":null,"Level":null}},{"type":"Feature","geometry":{"type":"Point","coordinates":[73.9074,15.39589]},"properties":{"Name":"Our Lady of Perpetual Succour High School, Cortalim","Principal":"Joao indaleto Erwin Colaco","Mobile":9850474773,"Email":"olpscortalim@yahoo.com","Capacity":595,"Panchayat":"Cortalim","Type":null,"Building Condition":null,"Used as Shelter":null,"Water Supply":null,"Toilets":null,"Classroom Count":null,"Level":null}},{"type":"Feature","geometry":{"type":"Point","coordinates":[73.9073,15.39588]},"properties":{"Name":"Our Lady of Perpetual Succour Higher Secondary School, Cortalim","Principal":"Joa Indaleto Erwin Colaco","Mobile":9850474773,"Email":"olpscortalim@yahoo.com","Capacity":120,"Panchayat":"Cortalim","Type":null,"Building Condition":null,"Used as Shelter":null,"Water Supply":null,"Toilets":null,"Classroom Count":null,"Level":null}},{"type":"Feature","geometry":{"type":"Point","coordinates":[73.9074,15.39587]},"properties":{"Name":"Our Lady of Perpetual Succour Primary School, Cortalim","Principal":"Jao Indaleto Erwin Colaco","Mobile":9850474773,"Email":"olpscortalim@yahoo.com","Capacity":377,"Panchayat":"Cortalim","Type":null,"Building Condition":null,"Used as Shelter":null,"Water Supply":null,"Toilets":null,"Classroom Count":null,"Level":null}},{"type":"Feature","geometry":{"type":"Point","coordinates":[73.90121,15.39876]},"properties":{"Name":"Shanta Durga Higher Secondary School, Sancoale, P.O. Cortalim,","Principal":"Vanessa D'cunha","Mobile":9881625965,"Email":"shantadurgahighschool@gmail.com","Capacity":84,"Panchayat":"Sancoale","Type":null,"Building Condition":null,"Used as Shelter":null,"Water Supply":null,"Toilets":null,"Classroom Count":null,"Level":null}},{"type":"Feature","geometry":{"type":"Point","coordinates":[73.95915,15.42156]},"properties":{"Name":"G.P.S. Mahalwada, Marcaim","Principal":"Sanjivani naik","Mobile":7972802710,"Email":"naiksiddhi1313@gmail.com","Capacity":14,"Panchayat":"Marcaim","Type":null,"Building Condition":null,"Used as Shelter":null,"Water Supply":null,"Toilets":null,"Classroom Count":null,"Level":null}},{"type":"Feature","geometry":{"type":"Point","coordinates":[73.90121,15.39876]},"properties":{"Name":"Shantadurga Primary School, Sancoale, Cortalim.","Principal":"Vanessa D' Cunha","Mobile":9881625969,"Email":"shantadurgahighschool@gmail.com","Capacity":152,"Panchayat":"Sancoale","Type":null,"Building Condition":null,"Used as Shelter":null,"Water Supply":null,"Toilets":null,"Classroom Count":null,"Level":null}},{"type":"Feature","geometry":{"type":"Point","coordinates":[73.91643,15.39721]},"properties":{"Name":"Vidya Vihar High School, Thana, Cortalim 403 710.","Principal":"Antonieta coutinho","Mobile":9890675067,"Email":"vidhyavihaarschool@gmail.com","Capacity":671,"Panchayat":"Cortalim","Type":null,"Building Condition":null,"Used as Shelter":null,"Water Supply":null,"Toilets":null,"Classroom Count":null,"Level":null}},{"type":"Feature","geometry":{"type":"Point","coordinates":[73.98723,15.43972]},"properties":{"Name":"Pradnya Shikshan Saunstha, Keri, Ponda.","Principal":"Netra naik","Mobile":7588486904,"Email":"pradnyass01@gmail.com","Capacity":118,"Panchayat":"Veling,Priol,Cuncoliem","Type":null,"Building Condition":null,"Used as Shelter":null,"Water Supply":null,"Toilets":null,"Classroom Count":null,"Level":null}},{"type":"Feature","geometry":{"type":"Point","coordinates":[73.9718,15.34202]},"properties":{"Name":"Saviour of the World Primary School, Loutolim","Principal":"Marienna rodrigues","Mobile":9511840198,"Email":"swhsl@yahoo.com","Capacity":629,"Panchayat":"Loutulim","Type":null,"Building Condition":null,"Used as Shelter":null,"Water Supply":null,"Toilets":null,"Classroom Count":null,"Level":null}},{"type":"Feature","geometry":{"type":"Point","coordinates":[73.953529,15.412606]},"properties":{"Name":"G.P.S. Karanzal, Marcaim","Principal":"Nutan M.Naik","Mobile":7507284442,"Email":"naiknutan1207@gmail.com","Capacity":33,"Panchayat":"Marcaim","Type":null,"Building Condition":null,"Used as Shelter":null,"Water Supply":null,"Toilets":null,"Classroom Count":null,"Level":null}},{"type":"Feature","geometry":{"type":"Point","coordinates":[73.94402,15.31972]},"properties":{"Name":"Holy Rosary Primary School, Nuvem.","Principal":"Sister Sharon","Mobile":9763756470,"Email":"holyrosaryschoolnuvem@gmail.com","Capacity":795,"Panchayat":"Nuvem","Type":null,"Building Condition":null,"Used as Shelter":null,"Water Supply":null,"Toilets":null,"Classroom Count":null,"Level":null}},{"type":"Feature","geometry":{"type":"Point","coordinates":[73.94659,15.30768]},"properties":{"Name":"Mae Dos Pobres Primary School, Nuvem. 403 604.","Principal":"Joes Colaco","Mobile":982216347,"Email":"mdphsnuvem@gmail.com","Capacity":661,"Panchayat":"Nuvem","Type":null,"Building Condition":null,"Used as Shelter":null,"Water Supply":null,"Toilets":null,"Classroom Count":null,"Level":null}},{"type":"Feature","geometry":{"type":"Point","coordinates":[73.92478,15.39535]},"properties":{"Name":"G.M.S. Curpawado, Cortalim. 403 710.","Principal":"jaquelina d' souza","Mobile":9822162877,"Email":"jaqulina.mhas@gmail.com","Capacity":19,"Panchayat":"Cortalim","Type":null,"Building Condition":null,"Used as Shelter":null,"Water Supply":null,"Toilets":null,"Classroom Count":null,"Level":null}},{"type":"Feature","geometry":{"type":"Point","coordinates":[73.92478,15.39535]},"properties":{"Name":"G.P.S. Cortalim","Principal":"jaquelina Mascarenhas","Mobile":9822162877,"Email":"jaquelina.mhas@gmail.com","Capacity":32,"Panchayat":"Cortalim","Type":null,"Building Condition":null,"Used as Shelter":null,"Water Supply":null,"Toilets":null,"Classroom Count":null,"Level":null}},{"type":"Feature","geometry":{"type":"Point","coordinates":[73.76789,15.54122]},"properties":{"Name":"Don Bosco High School, Calangute, Bardez","Principal":"Mr. Savio Fernandes Sales","Mobile":9881887270,"Email":"donboscocal@yahoo.in","Capacity":293,"Panchayat":"Calangute","Type":null,"Building Condition":null,"Used as Shelter":null,"Water Supply":null,"Toilets":null,"Classroom Count":null,"Level":null}},{"type":"Feature","geometry":{"type":"Point","coordinates":[73.92461,15.3579]},"properties":{"Name":"Our Lady of Succour High School, Nagoa Verna","Principal":"Olympia perera","Mobile":9822195661,"Email":"sucoour.sc@gmail.com","Capacity":435,"Panchayat":"Nagoa","Type":null,"Building Condition":null,"Used as Shelter":null,"Water Supply":null,"Toilets":null,"Classroom Count":null,"Level":null}},{"type":"Feature","geometry":{"type":"Point","coordinates":[73.92461,15.3579]},"properties":{"Name":"Our Lady of Succour Primary School, Nagoa","Principal":"opympia perera","Mobile":9822195661,"Email":"succour.sc@gmail.com","Capacity":330,"Panchayat":"Nagoa","Type":null,"Building Condition":null,"Used as Shelter":null,"Water Supply":null,"Toilets":null,"Classroom Count":null,"Level":null}},{"type":"Feature","geometry":{"type":"Point","coordinates":[73.76789,15.54122]},"properties":{"Name":"Don Bosco Primary School, Calangute","Principal":"Mr. Savio Fernandes Sales","Mobile":9881887270,"Email":"donboscocal@yahoo.in","Capacity":159,"Panchayat":"Calangute","Type":null,"Building Condition":null,"Used as Shelter":null,"Water Supply":null,"Toilets":null,"Classroom Count":null,"Level":null}},{"type":"Feature","geometry":{"type":"Point","coordinates":[74.048248,15.42638]},"properties":{"Name":"G.P.S. Bazar, Khandepar","Principal":"Josna A.B.Matarbhog","Mobile":9272136130,"Email":"jyotsanam24@gmail.com","Capacity":23,"Panchayat":"Curti-Khandepar","Type":null,"Building Condition":null,"Used as Shelter":null,"Water Supply":null,"Toilets":null,"Classroom Count":null,"Level":null}},{"type":"Feature","geometry":{"type":"Point","coordinates":[74.043048,15.420733]},"properties":{"Name":"G.P.S. Keriyewada, Khandepar","Principal":"Kunda S. Verekar","Mobile":9673961469,"Email":"kundamadekar@gmail.com","Capacity":28,"Panchayat":"Curti-Khandepar","Type":null,"Building Condition":null,"Used as Shelter":null,"Water Supply":null,"Toilets":null,"Classroom Count":null,"Level":null}},{"type":"Feature","geometry":{"type":"Point","coordinates":[73.76344,15.53764]},