{"type":"FeatureCollection","name":"tree-cutters","crs":{"type":"name","properties":{"name":"urn:ogc:def:crs:OGC:1.3:CRS84"}},"features":[{"type":"Feature","geometry":{"type":"Point","coordinates":[74.044632,15.564179]},"properties":{"Name":"Manipal Malik","Mobile":9168397492,"Address":"Upper Harvalem Goa, Sanquelim Goa"}},{"type":"Feature","geometry":{"type":"Point","coordinates":[73.967128,15.590712]},"properties":{"Name":"Savlo Ghadi","Mobile":9545993978,"Address":"Sarvan Bicholim Goa"}},{"type":"Feature","geometry":{"type":"Point","coordinates":[74.015873,15.557504]},"properties":{"Name":"Pramod Gad","Mobile":null,"Address":"Cudnem Goa, Sanquelim Goa"}},{"type":"Feature","geometry":{"type":"Point","coordinates":[73.947738,15.661547]},"properties":{"Name":"Janu Shinde","Mobile":7588488718,"Address":"Latambarcem, Bicholim Goa"}},{"type":"Feature","geometry":{"type":"Point","coordinates":[74.050794,15.547111]},"properties":{"Name":"Chandra Majik","Mobile":7517319336,"Address":"Honda Goa"}},{"type":"Feature","geometry":{"type":"Point","coordinates":[73.919793,15.618606]},"properties":{"Name":"Tukaram Jungle","Mobile":935639094,"Address":"Mulgao Bicholim Goa"}},{"type":"Feature","geometry":{"type":"Point","coordinates":[73.923154,15.532074]},"properties":{"Name":"Laxmankalu","Mobile":8277053610,"Address":"Malar, Sao Mathias"}},{"type":"Feature","geometry":{"type":"Point","coordinates":[73.851551,15.455132]},"properties":{"Name":"Suraj Talwar","Mobile":8408010837,"Address":"Bambolim"}},{"type":"Feature","geometry":{"type":"Point","coordinates":[-122.028807,36.974128]},"properties":{"Name":"Satyawan Golvankar","Mobile":7507820413,"Address":"447, Cabesa Santa Cruz"}},{"type":"Feature","geometry":{"type":"Point","coordinates":[73.845671,15.476128]},"properties":{"Name":"Francis Fernandes","Mobile":7249043568,"Address":"H. No. 1006 Premairo Bairro, St Cruz"}},{"type":"Feature","geometry":{"type":"Point","coordinates":[73.921286,15.463435]},"properties":{"Name":"Nikku","Mobile":9822082807,"Address":"Azossim"}},{"type":"Feature","geometry":{"type":"Point","coordinates":[73.889612,15.44]},"properties":{"Name":"Minino Tree Cutter","Mobile":9604503989,"Address":"Saleria, Goa Velha"}},{"type":"Feature","geometry":{"type":"Point","coordinates":[73.797418,15.717623]},"properties":{"Name":"Ankush Raul","Mobile":9404451511,"Address":"Pernem"}},{"type":"Feature","geometry":{"type":"Point","coordinates":[null,null]},"properties":{"Name":"Hanumant Kole","Mobile":9823854403,"Address":null}},{"type":"Feature","geometry":{"type":"Point","coordinates":[73.742901,15.659803]},"properties":{"Name":"Suresh B. Sawant","Mobile":9657958671,"Address":"Mandrem"}},{"type":"Feature","geometry":{"type":"Point","coordinates":[73.726671,15.636142]},"properties":{"Name":"Anton Fernandes","Mobile":8888122411,"Address":"Morjim"}},{"type":"Feature","geometry":{"type":"Point","coordinates":[null,null]},"properties":{"Name":"Lino Fernandes","Mobile":8806376672,"Address":"Paraste"}},{"type":"Feature","geometry":{"type":"Point","coordinates":[73.774933,15.664882]},"properties":{"Name":"Rajaram Parsekar","Mobile":9850816676,"Address":"Parcem"}},{"type":"Feature","geometry":{"type":"Point","coordinates":[73.824262,15.703458]},"properties":{"Name":"Tukaram Naik","Mobile":9611503749,"Address":"Virnoda"}},{"type":"Feature","geometry":{"type":"Point","coordinates":[94.000725,24.33201]},"properties":{"Name":"Shahu B Shelke","Mobile":9545006598,"Address":"Chandel"}},{"type":"Feature","geometry":{"type":"Point","coordinates":[8.894184,-1.01042]},"properties":{"Name":"Prakash R Shetye","Mobile":9623853679,"Address":"Ozori"}},{"type":"Feature","geometry":{"type":"Point","coordinates":[null,null]},"properties":{"Name":"Bhikaji V. Gaonkar","Mobile":7972556404,"Address":null}},{"type":"Feature","geometry":{"type":"Point","coordinates":[73.751527,15.709976]},"properties":{"Name":"Babal Palyekar","Mobile":9823103395,"Address":"Corgao"}},{"type":"Feature","geometry":{"type":"Point","coordinates":[74.053307,15.500521]},"properties":{"Name":"Dashrath Mhalshekar","Mobile":9405850176,"Address":"Velguem Satarri, Cotorem"}},{"type":"Feature","geometry":{"type":"Point","coordinates":[74.053307,15.500521]},"properties":{"Name":"Laxman Shaba Gaonkar","Mobile":9921138255,"Address":"Velguem Satarri, Cotorem"}},{"type":"Feature","geometry":{"type":"Point","coordinates":[74.182144,15.484067]},"properties":{"Name":"Rajaram Gaonkar","Mobile":7378345876,"Address":"Shirsodem, Cotorem Sattari"}},{"type":"Feature","geometry":{"type":"Point","coordinates":[74.144549,15.479858]},"properties":{"Name":"Abu Sanvordekar","Mobile":7588483678,"Address":"Gholkarwada, Cotorem Sattari"}},{"type":"Feature","geometry":{"type":"Point","coordinates":[74.044404,15.572929]},"properties":{"Name":"Navso Vithal Gawas","Mobile":9673817302,"Address":"Morlem Colony Sattari Goa"}},{"type":"Feature","geometry":{"type":"Point","coordinates":[74.150433,15.542053]},"properties":{"Name":"Chandrakant Surlakar","Mobile":9421322443,"Address":"Kodal Nagargao Sattari Goa"}},{"type":"Feature","geometry":{"type":"Point","coordinates":[74.150433,15.542053]},"properties":{"Name":"Govind Bordekar","Mobile":9421306598,"Address":"Derode Nagargao Sattari"}},{"type":"Feature","geometry":{"type":"Point","coordinates":[72.987374,19.232172]},"properties":{"Name":"Naryan Zarmekar","Mobile":9423037399,"Address":"Hirve Thane Sattari"}},{"type":"Feature","geometry":{"type":"Point","coordinates":[74.123158,15.211919]},"properties":{"Name":"Bhiku Bejari","Mobile":9130376913,"Address":"Nagvem Mauxi Sattari"}},{"type":"Feature","geometry":{"type":"Point","coordinates":[74.02843,15.587615]},"properties":{"Name":"Parshuram Rathod","Mobile":9923095061,"Address":"Podshem Poriem Sattari"}},{"type":"Feature","geometry":{"type":"Point","coordinates":[74.059387,15.595893]},"properties":{"Name":"Rameshwar Mhalshekar","Mobile":9699215532,"Address":"Mhalshewada Poriem Sattari"}},{"type":"Feature","geometry":{"type":"Point","coordinates":[73.784557,15.588179]},"properties":{"Name":"Agacio Fernandes","Mobile":9552437832,"Address":"R/o. Verla, Canca, Bardez Goa."}},{"type":"Feature","geometry":{"type":"Point","coordinates":[73.764653,15.563226]},"properties":{"Name":"Ratnakar Harmalkar","Mobile":9881578474,"Address":"R/o. Arpora, Bardez Goa"}},{"type":"Feature","geometry":{"type":"Point","coordinates":[73.766142,15.626645]},"properties":{"Name":"Antonio Pereira","Mobile":8322272213,"Address":"Afframant Vaddy, Siolim, Bardez Goa"}},{"type":"Feature","geometry":{"type":"Point","coordinates":[73.809908,15.507591]},"properties":{"Name":"Kailash Kumbhar","Mobile":9764243425,"Address":"R/o. Reis Magos, Bardez Goa."}},{"type":"Feature","geometry":{"type":"Point","coordinates":[73.835748,15.516596]},"properties":{"Name":"Mahadev Hemavati","Mobile":9850764879,"Address":"R/o. Penha De Franca, Alto Porvorim Goa."}},{"type":"Feature","geometry":{"type":"Point","coordinates":[73.874419,15.594412]},"properties":{"Name":"Santosh Parwar","Mobile":9689538194,"Address":"R/o. Aldona, Bardez Goa."}},{"type":"Feature","geometry":{"type":"Point","coordinates":[73.845215,15.54052]},"properties":{"Name":"Ganesh Madkaikar","Mobile":8275890543,"Address":"R/o. Salvador Do Mundo, Porvorim Goa."}},{"type":"Feature","geometry":{"type":"Point","coordinates":[73.809958,15.590164]},"properties":{"Name":"Chaman Saab","Mobile":8308699240,"Address":"R/o. Mapusa, Bardez Goa."}},{"type":"Feature","geometry":{"type":"Point","coordinates":[73.785455,15.509913]},"properties":{"Name":"Basuraj","Mobile":8317275938,"Address":"R/o. Fattawaddo, Nerul, Bardez Goa"}},{"type":"Feature","geometry":{"type":"Point","coordinates":[73.789068,15.546255]},"properties":{"Name":"Ravlu Haldankar","Mobile":9822138241,"Address":"H. No. 2/39, Cotlawaddo, Saligao, Bardez Goa"}},{"type":"Feature","geometry":{"type":"Point","coordinates":[73.816405,15.522199]},"properties":{"Name":"Navnath Bamane","Mobile":9158461706,"Address":"Maina, Pilerne, Bardez Goa"}},{"type":"Feature","geometry":{"type":"Point","coordinates":[73.816405,15.522199]},"properties":{"Name":"Dagdu Bamane","Mobile":7709912405,"Address":"Maina, Pilerne, Bardez Goa"}},{"type":"Feature","geometry":{"type":"Point","coordinates":[73.769135,15.599483]},"properties":{"Name":"Dayanand Morajkar","Mobile":9923481206,"Address":"R/o. Assagao, Bardez Goa"}},{"type":"Feature","geometry":{"type":"Point","coordinates":[73.769135,15.599483]},"properties":{"Name":"Riyaaz Jangundi","Mobile":9923182256,"Address":"R/o. Assagao, Bardez Goa"}},{"type":"Feature","geometry":{"type":"Point","coordinates":[73.874419,15.594412]},"properties":{"Name":"Anand Falkar","Mobile":9923369278,"Address":"r/o. Aldona, Bardez Goa"}},{"type":"Feature","geometry":{"type":"Point","coordinates":[73.868675,15.623404]},"properties":{"Name":"Laximan Shelke","Mobile":7066677066,"Address":"r/o. New Waddo, Sirsaim, Bardez Goa"}},{"type":"Feature","geometry":{"type":"Point","coordinates":[73.850728,15.651427]},"properties":{"Name":"Vinod Fadte","Mobile":9511865490,"Address":"R/o. Zila Bhat, Revora, Bardez Goa"}},{"type":"Feature","geometry":{"type":"Point","coordinates":[73.799047,15.580382]},"properties":{"Name":"Ratnakar Kavlekar","Mobile":8788613752,"Address":"R/o. Sorvemwaddo, Guirim, Bardez Goa"}},{"type":"Feature","geometry":{"type":"Point","coordinates":[73.799047,15.580382]},"properties":{"Name":"Ramdas Parsekar","Mobile":9657256028,"Address":"R/o. Sorvemwaddo, Guirim, Bardez Goa"}},{"type":"Feature","geometry":{"type":"Point","coordinates":[73.839359,15.594528]},"properties":{"Name":"Manju Ambe","Mobile":9637869668,"Address":"R/o. Moira, Bardez Goa"}},{"type":"Feature","geometry":{"type":"Point","coordinates":[73.784629,15.638048]},"properties":{"Name":"Deepak Naik Pednekar","Mobile":9607354565,"Address":"R/o. Khairat, Camurlim, Bardez Goa."}}]}