{"type":"FeatureCollection","name":"tree-cutters","crs":{"type":"name","properties":{"name":"urn:ogc:def:crs:OGC:1.3:CRS84"}},"features":[{"type":"Feature","geometry":{"type":"Point","coordinates":[73.817053,15.48716]},"properties":{"Name":"Manipal Malik","Mobile":9168397492,"Address":"Upper Harvalem Goa, Sanquelim Goa"}},{"type":"Feature","geometry":{"type":"Point","coordinates":[73.817925,15.486575]},"properties":{"Name":"Savlo Ghadi","Mobile":9545993978,"Address":"Sarvan Bicholim Goa"}},{"type":"Feature","geometry":{"type":"Point","coordinates":[73.815397,15.486526]},"properties":{"Name":"Pramod Gad","Mobile":null,"Address":"Cudnem Goa, Sanquelim Goa"}},{"type":"Feature","geometry":{"type":"Point","coordinates":[73.81467,15.485106]},"properties":{"Name":"Janu Shinde","Mobile":7588488718,"Address":"Latambarcem, Bicholim Goa"}},{"type":"Feature","geometry":{"type":"Point","coordinates":[null,null]},"properties":{"Name":"Chandra Majik","Mobile":7517319336,"Address":"Honda Goa"}},{"type":"Feature","geometry":{"type":"Point","coordinates":[null,null]},"properties":{"Name":"Tukaram Jungle","Mobile":935639094,"Address":"Mulgao Bicholim Goa"}},{"type":"Feature","geometry":{"type":"Point","coordinates":[null,null]},"properties":{"Name":"Laxmankalu","Mobile":8277053610,"Address":"Malar, Sao Mathias"}},{"type":"Feature","geometry":{"type":"Point","coordinates":[null,null]},"properties":{"Name":"Suraj Talwar","Mobile":8408010837,"Address":"Bambolim"}},{"type":"Feature","geometry":{"type":"Point","coordinates":[null,null]},"properties":{"Name":"Satyawan Golvankar","Mobile":7507820413,"Address":"447, Cabesa Santa Cruz"}},{"type":"Feature","geometry":{"type":"Point","coordinates":[null,null]},"properties":{"Name":"Francis Fernandes","Mobile":7249043568,"Address":"H. No. 1006 Premairo Bairro, St Cruz"}},{"type":"Feature","geometry":{"type":"Point","coordinates":[null,null]},"properties":{"Name":"Nikku","Mobile":9822082807,"Address":"Azossim"}},{"type":"Feature","geometry":{"type":"Point","coordinates":[null,null]},"properties":{"Name":"Minino Tree Cutter","Mobile":9604503989,"Address":"Saleria, Goa Velha"}},{"type":"Feature","geometry":{"type":"Point","coordinates":[null,null]},"properties":{"Name":"Ankush Raul","Mobile":9404451511,"Address":"Pernem"}},{"type":"Feature","geometry":{"type":"Point","coordinates":[null,null]},"properties":{"Name":"Hanumant Kole","Mobile":9823854403,"Address":null}},{"type":"Feature","geometry":{"type":"Point","coordinates":[null,null]},"properties":{"Name":"Suresh B. Sawant","Mobile":9657958671,"Address":"Mandrem"}},{"type":"Feature","geometry":{"type":"Point","coordinates":[null,null]},"properties":{"Name":"Anton Fernandes","Mobile":8888122411,"Address":"Morjim"}},{"type":"Feature","geometry":{"type":"Point","coordinates":[null,null]},"properties":{"Name":"Lino Fernandes","Mobile":8806376672,"Address":"Paraste"}},{"type":"Feature","geometry":{"type":"Point","coordinates":[null,null]},"properties":{"Name":"Rajaram Parsekar","Mobile":9850816676,"Address":"Parcem"}},{"type":"Feature","geometry":{"type":"Point","coordinates":[null,null]},"properties":{"Name":"Tukaram Naik","Mobile":9611503749,"Address":"Virnoda"}},{"type":"Feature","geometry":{"type":"Point","coordinates":[null,null]},"properties":{"Name":"Shahu B Shelke","Mobile":9545006598,"Address":"Chandel"}},{"type":"Feature","geometry":{"type":"Point","coordinates":[null,null]},"properties":{"Name":"Prakash R Shetye","Mobile":9623853679,"Address":"Ozori"}},{"type":"Feature","geometry":{"type":"Point","coordinates":[null,null]},"properties":{"Name":"Bhikaji V. Gaonkar","Mobile":7972556404,"Address":null}},{"type":"Feature","geometry":{"type":"Point","coordinates":[null,null]},"properties":{"Name":"Babal Palyekar","Mobile":9823103395,"Address":"Corgao"}},{"type":"Feature","geometry":{"type":"Point","coordinates":[null,null]},"properties":{"Name":"Dashrath Mhalshekar","Mobile":9405850176,"Address":"Velguem Satarri, Cotorem"}},{"type":"Feature","geometry":{"type":"Point","coordinates":[null,null]},"properties":{"Name":"Laxman Shaba Gaonkar","Mobile":9921138255,"Address":"Velguem Satarri, Cotorem"}},{"type":"Feature","geometry":{"type":"Point","coordinates":[null,null]},"properties":{"Name":"Rajaram Gaonkar","Mobile":7378345876,"Address":"Shirsodem, Cotorem Sattari"}},{"type":"Feature","geometry":{"type":"Point","coordinates":[null,null]},"properties":{"Name":"Abu Sanvordekar","Mobile":7588483678,"Address":"Gholkarwada, Cotorem Sattari"}},{"type":"Feature","geometry":{"type":"Point","coordinates":[null,null]},"properties":{"Name":"Navso Vithal Gawas","Mobile":9673817302,"Address":"Morlem Colony Sattari Goa"}},{"type":"Feature","geometry":{"type":"Point","coordinates":[null,null]},"properties":{"Name":"Chandrakant Surlakar","Mobile":9421322443,"Address":"Kodal Nagargao Sattari Goa"}},{"type":"Feature","geometry":{"type":"Point","coordinates":[null,null]},"properties":{"Name":"Govind Bordekar","Mobile":9421306598,"Address":"Derode Nagargao Sattari"}},{"type":"Feature","geometry":{"type":"Point","coordinates":[null,null]},"properties":{"Name":"Naryan Zarmekar","Mobile":9423037399,"Address":"Hirve Thane Sattari"}},{"type":"Feature","geometry":{"type":"Point","coordinates":[null,null]},"properties":{"Name":"Bhiku Bejari","Mobile":9130376913,"Address":"Nagvem Mauxi Sattari"}},{"type":"Feature","geometry":{"type":"Point","coordinates":[null,null]},"properties":{"Name":"Parshuram Rathod","Mobile":9923095061,"Address":"Podshem Poriem Sattari"}},{"type":"Feature","geometry":{"type":"Point","coordinates":[null,null]},"properties":{"Name":"Rameshwar Mhalshekar","Mobile":9699215532,"Address":"Mhalshewada Poriem Sattari"}},{"type":"Feature","geometry":{"type":"Point","coordinates":[null,null]},"properties":{"Name":"Agacio Fernandes","Mobile":9552437832,"Address":"R/o. Verla, Canca, Bardez Goa."}},{"type":"Feature","geometry":{"type":"Point","coordinates":[null,null]},"properties":{"Name":"Ratnakar Harmalkar","Mobile":9881578474,"Address":"R/o. Arpora, Bardez Goa"}},{"type":"Feature","geometry":{"type":"Point","coordinates":[null,null]},"properties":{"Name":"Antonio Pereira","Mobile":8322272213,"Address":"Afframant Vaddy, Siolim, Bardez Goa"}},{"type":"Feature","geometry":{"type":"Point","coordinates":[null,null]},"properties":{"Name":"Kailash Kumbhar","Mobile":9764243425,"Address":"R/o. Reis Magos, Bardez Goa."}},{"type":"Feature","geometry":{"type":"Point","coordinates":[null,null]},"properties":{"Name":"Mahadev Hemavati","Mobile":9850764879,"Address":"R/o. Penha De Franca, Alto Porvorim Goa."}},{"type":"Feature","geometry":{"type":"Point","coordinates":[null,null]},"properties":{"Name":"Santosh Parwar","Mobile":9689538194,"Address":"R/o. Aldona, Bardez Goa."}},{"type":"Feature","geometry":{"type":"Point","coordinates":[null,null]},"properties":{"Name":"Ganesh Madkaikar","Mobile":8275890543,"Address":"R/o. Salvador Do Mundo, Porvorim Goa."}},{"type":"Feature","geometry":{"type":"Point","coordinates":[null,null]},"properties":{"Name":"Chaman Saab","Mobile":8308699240,"Address":"R/o. Mapusa, Bardez Goa."}},{"type":"Feature","geometry":{"type":"Point","coordinates":[null,null]},"properties":{"Name":"Basuraj","Mobile":8317275938,"Address":"R/o. Fattawaddo, Nerul, Bardez Goa"}},{"type":"Feature","geometry":{"type":"Point","coordinates":[null,null]},"properties":{"Name":"Ravlu Haldankar","Mobile":9822138241,"Address":"H. No. 2/39, Cotlawaddo, Saligao, Bardez Goa"}},{"type":"Feature","geometry":{"type":"Point","coordinates":[null,null]},"properties":{"Name":"Navnath Bamane","Mobile":9158461706,"Address":"Maina, Pilerne, Bardez Goa"}},{"type":"Feature","geometry":{"type":"Point","coordinates":[null,null]},"properties":{"Name":"Dagdu Bamane","Mobile":7709912405,"Address":"Maina, Pilerne, Bardez Goa"}},{"type":"Feature","geometry":{"type":"Point","coordinates":[null,null]},"properties":{"Name":"Dayanand Morajkar","Mobile":9923481206,"Address":"R/o. Assagao, Bardez Goa"}},{"type":"Feature","geometry":{"type":"Point","coordinates":[null,null]},"properties":{"Name":"Riyaaz Jangundi","Mobile":9923182256,"Address":"R/o. Assagao, Bardez Goa"}},{"type":"Feature","geometry":{"type":"Point","coordinates":[null,null]},"properties":{"Name":"Anand Falkar","Mobile":9923369278,"Address":"r/o. Aldona, Bardez Goa"}},{"type":"Feature","geometry":{"type":"Point","coordinates":[null,null]},"properties":{"Name":"Laximan Shelke","Mobile":7066677066,"Address":"r/o. New Waddo, Sirsaim, Bardez Goa"}},{"type":"Feature","geometry":{"type":"Point","coordinates":[null,null]},"properties":{"Name":"Vinod Fadte","Mobile":9511865490,"Address":"R/o. Zila Bhat, Revora, Bardez Goa"}},{"type":"Feature","geometry":{"type":"Point","coordinates":[null,null]},"properties":{"Name":"Ratnakar Kavlekar","Mobile":8788613752,"Address":"R/o. Sorvemwaddo, Guirim, Bardez Goa"}},{"type":"Feature","geometry":{"type":"Point","coordinates":[null,null]},"properties":{"Name":"Ramdas Parsekar","Mobile":9657256028,"Address":"R/o. Sorvemwaddo, Guirim, Bardez Goa"}},{"type":"Feature","geometry":{"type":"Point","coordinates":[null,null]},"properties":{"Name":"Manju Ambe","Mobile":9637869668,"Address":"R/o. Moira, Bardez Goa"}},{"type":"Feature","geometry":{"type":"Point","coordinates":[null,null]},"properties":{"Name":"Deepak Naik Pednekar","Mobile":9607354565,"Address":"R/o. Khairat, Camurlim, Bardez Goa."}}]}